[
  {
    "address": "Россия, Республика Калмыкия, Элиста, Северо-Западный район, 8-я Северо-Западная улица, 11 ",
    "longitude": "44.226244",
    "latitude": "46.329054",
    "name": "Лапшин Артемий Макарович",
    "phone": "79610000000"
  },
  {
    "address": "Россия, Республика Калмыкия, Элиста, въезд Канукова, 4 ",
    "longitude": "44.274026",
    "latitude": "46.298902",
    "name": "Демидова Диана Георгиевна",
    "phone": "79610000001"
  },
  {
    "address": "Россия, Республика Калмыкия, Элиста, улица Менделеева, 12 ",
    "longitude": "44.287402",
    "latitude": "46.304972",
    "name": "Дмитриев Иван Михайлович",
    "phone": "79610000002"
  },
  {
    "address": "Россия, Республика Калмыкия, Элиста, проезд Халхин Гол, 20 ",
    "longitude": "44.210362",
    "latitude": "46.31591",
    "name": "Новиков Арсений Матвеевич",
    "phone": "79610000003"
  },
  {
    "address": "Россия, Республика Калмыкия, Элиста, площадь Ленина ",
    "longitude": "44.269732",
    "latitude": "46.307917",
    "name": "Ширяева Ольга Алексеевна",
    "phone": "79610000004"
  },
  {
    "address": "Россия, Республика Калмыкия, Элиста, Шахматная улица, 41 ",
    "longitude": "44.255763",
    "latitude": "46.323484",
    "name": "Корнеева Агата Давидовна",
    "phone": "79610000005"
  },
  {
    "address": "Россия, Республика Калмыкия, Элиста, 10-й микрорайон, 15к1, подъезд 3 ",
    "longitude": "44.265052",
    "latitude": "46.32486",
    "name": "Попов Максим Тимофеевич",
    "phone": "79610000006"
  },
  {
    "address": "Россия, Республика Калмыкия, Элиста, улица Кутузова ",
    "longitude": "44.24952",
    "latitude": "46.31502",
    "name": "Виноградова Виктория Артёмовна",
    "phone": "79610000007"
  },
  {
    "address": "Россия, Республика Калмыкия, Элиста, 8-й микрорайон, 3 ",
    "longitude": "44.306257",
    "latitude": "46.306828",
    "name": "Коновалова Дарья Артёмовна",
    "phone": "79610000008"
  },
  {
    "address": "Россия, Республика Калмыкия, Элиста, 1-й микрорайон ",
    "longitude": "44.258233",
    "latitude": "46.316184",
    "name": "Кудрявцева Мария Ярославовна",
    "phone": "79610000009"
  },
  {
    "address": "Россия, Республика Калмыкия, Элиста, улица В.И. Ленина, 266А, подъезд 2 ",
    "longitude": "44.29007",
    "latitude": "46.310781",
    "name": "Волков Арсений Тимофеевич",
    "phone": "79610000010"
  },
  {
    "address": "Россия, Республика Калмыкия, Элиста, 6-й микрорайон, 13, подъезд 1 ",
    "longitude": "44.291812",
    "latitude": "46.30237",
    "name": "Шульгина Диана Евгеньевна",
    "phone": "79610000011"
  },
  {
    "address": "Россия, Республика Калмыкия, Элиста, Южная улица ",
    "longitude": "44.263372",
    "latitude": "46.294369",
    "name": "Борисова София Адамовна",
    "phone": "79610000012"
  },
  {
    "address": "Россия, Республика Калмыкия, Элиста, улица Номто Очирова, 8, подъезд 3 ",
    "longitude": "44.268061",
    "latitude": "46.305458",
    "name": "Андреев Данила Эминович",
    "phone": "79610000013"
  },
  {
    "address": "Россия, Республика Калмыкия, Элиста, Калачинская улица, 19 ",
    "longitude": "44.290663",
    "latitude": "46.324231",
    "name": "Васильева Ясмина Даниловна",
    "phone": "79610000014"
  },
  {
    "address": "Россия, Республика Калмыкия, Элиста, 8-й микрорайон, 58, подъезд 1 ",
    "longitude": "44.310911",
    "latitude": "46.303055",
    "name": "Ефимова Виктория Вадимовна",
    "phone": "79610000015"
  },
  {
    "address": "Россия, Республика Калмыкия, Элиста, 3-й микрорайон, 24, подъезд 5 ",
    "longitude": "44.27054",
    "latitude": "46.316345",
    "name": "Колпакова Варвара Максимовна",
    "phone": "79610000016"
  },
  {
    "address": "Россия, Республика Калмыкия, Элиста, улица Номто Очирова, 26 ",
    "longitude": "44.268851",
    "latitude": "46.303553",
    "name": "Сидоров Алексей Андреевич",
    "phone": "79610000017"
  },
  {
    "address": "Россия, Республика Калмыкия, Элиста, Коммунистическая улица, 12 ",
    "longitude": "44.267369",
    "latitude": "46.301778",
    "name": "Михайлова София Петровна",
    "phone": "79610000018"
  },
  {
    "address": "Россия, Республика Калмыкия, Элиста, микрорайон Молодёжный, 11 ",
    "longitude": "44.25738",
    "latitude": "46.322433",
    "name": "Семенова Дарья Арсентьевна",
    "phone": "79610000019"
  },
  {
    "address": "Россия, Республика Калмыкия, Элиста, проезд Гермашева ",
    "longitude": "44.233152",
    "latitude": "46.315262",
    "name": "Кондрашова Мария Степановна",
    "phone": "79610000020"
  },
  {
    "address": "Россия, Республика Калмыкия, Элиста, улица Юрия Клыкова ",
    "longitude": "44.284644",
    "latitude": "46.308521",
    "name": "Беляева Анна Марковна",
    "phone": "79610000021"
  },
  {
    "address": "Россия, Республика Калмыкия, Элиста, 2-й микрорайон ",
    "longitude": "44.299655",
    "latitude": "46.308073",
    "name": "Попова Анастасия Ильинична",
    "phone": "79610000022"
  },
  {
    "address": "Россия, Республика Калмыкия, Элиста, 2-й микрорайон, 17 ",
    "longitude": "44.300778",
    "latitude": "46.308066",
    "name": "Нестеров Артём Константинович",
    "phone": "79610000023"
  },
  {
    "address": "Россия, Республика Калмыкия, Элиста, улица В.И. Ленина, 278 ",
    "longitude": "44.299421",
    "latitude": "46.312748",
    "name": "Молчанова Виктория Михайловна",
    "phone": "79610000024"
  },
  {
    "address": "Россия, Республика Калмыкия, Элиста, 10-й микрорайон, 18Б ",
    "longitude": "44.267531",
    "latitude": "46.325856",
    "name": "Жукова Татьяна Кирилловна",
    "phone": "79610000025"
  },
  {
    "address": "Россия, Республика Калмыкия, Элиста, 8-й микрорайон, 56 ",
    "longitude": "44.313049",
    "latitude": "46.302389",
    "name": "Овчинникова Маргарита Матвеевна",
    "phone": "79610000026"
  },
  {
    "address": "Россия, Республика Калмыкия, Элиста, микрорайон Сити-3 ",
    "longitude": "44.320549",
    "latitude": "46.304754",
    "name": "Соловьев Тимофей Тимурович",
    "phone": "79610000027"
  },
  {
    "address": "Россия, Республика Калмыкия, Элиста, 6-й микрорайон, 12, подъезд 4 ",
    "longitude": "44.292441",
    "latitude": "46.303347",
    "name": "Кузнецов Макар Михайлович",
    "phone": "79610000028"
  },
  {
    "address": "Россия, Республика Калмыкия, Элиста, улица Кнакиса, 35 ",
    "longitude": "44.217908",
    "latitude": "46.317646",
    "name": "Дроздов Максим Тимофеевич",
    "phone": "79610000029"
  },
  {
    "address": "Россия, Республика Калмыкия, Элиста, улица В.И. Ленина, 269 ",
    "longitude": "44.274125",
    "latitude": "46.309697",
    "name": "Назаров Даниил Иванович",
    "phone": "79610000030"
  },
  {
    "address": "Россия, Республика Калмыкия, Элиста, улица В.И. Ленина, 247Б ",
    "longitude": "44.267926",
    "latitude": "46.308546",
    "name": "Колпакова Анна Алексеевна",
    "phone": "79610000031"
  },
  {
    "address": "Россия, Республика Калмыкия, Элиста, парк Дружба ",
    "longitude": "44.25623",
    "latitude": "46.306448",
    "name": "Алексеева Юлия Тимуровна",
    "phone": "79610000032"
  },
  {
    "address": "Россия, Республика Калмыкия, Элиста, Северо-Западный район, 1-я Северо-Западная улица, 29 ",
    "longitude": "44.227834",
    "latitude": "46.324051",
    "name": "Горохов Александр Артёмович",
    "phone": "79610000033"
  },
  {
    "address": "Россия, Республика Калмыкия, Элиста, улица имени В.У. Лиджиева, 36 ",
    "longitude": "44.220441",
    "latitude": "46.322806",
    "name": "Петров Даниэль Павлович",
    "phone": "79610000034"
  },
  {
    "address": "Россия, Республика Калмыкия, Элиста, 4-й микрорайон, 4 ",
    "longitude": "44.274816",
    "latitude": "46.321511",
    "name": "Петухов Артур Даниилович",
    "phone": "79610000035"
  },
  {
    "address": "Россия, Республика Калмыкия, Элиста, улица Кирова, 53 ",
    "longitude": "44.262473",
    "latitude": "46.300247",
    "name": "Мельников Алексей Владимирович",
    "phone": "79610000036"
  },
  {
    "address": "Россия, Республика Калмыкия, Элиста, улица Г.Д. Эрдниева ",
    "longitude": "44.26498",
    "latitude": "46.301156",
    "name": "Давыдова Марьяна Всеволодовна",
    "phone": "79610000037"
  },
  {
    "address": "Россия, Республика Калмыкия, Элиста, 9-й микрорайон, 44 ",
    "longitude": "44.307012",
    "latitude": "46.300496",
    "name": "Тимофеева Надежда Глебовна",
    "phone": "79610000038"
  },
  {
    "address": "Россия, Республика Калмыкия, Элиста, 10-й микрорайон, 15к1, подъезд 4 ",
    "longitude": "44.265043",
    "latitude": "46.325084",
    "name": "Беликов Даниил Арсентьевич",
    "phone": "79610000039"
  },
  {
    "address": "Россия, Республика Калмыкия, Элиста, Аршанский проезд, 20 ",
    "longitude": "44.238929",
    "latitude": "46.296878",
    "name": "Богданов Адам Макарович",
    "phone": "79610000040"
  },
  {
    "address": "Россия, Республика Калмыкия, Элиста, улица Урлдан, 7 ",
    "longitude": "44.233233",
    "latitude": "46.324903",
    "name": "Сергеева Василиса Александровна",
    "phone": "79610000041"
  },
  {
    "address": "Россия, Республика Калмыкия, Элиста, улица В.И. Ленина, 263 ",
    "longitude": "44.272427",
    "latitude": "46.309411",
    "name": "Быкова Надежда Марковна",
    "phone": "79610000042"
  },
  {
    "address": "Россия, Республика Калмыкия, Элиста, 9-й микрорайон, 58, подъезд 1 ",
    "longitude": "44.311459",
    "latitude": "46.297582",
    "name": "Кононов Николай Иванович",
    "phone": "79610000043"
  },
  {
    "address": "Россия, Республика Калмыкия, Элиста, улица Лермонтова, 47 ",
    "longitude": "44.279892",
    "latitude": "46.301841",
    "name": "Овчинников Даниил Александрович",
    "phone": "79610000044"
  },
  {
    "address": "Россия, Республика Калмыкия, Элиста, Солнечный проезд, 8 ",
    "longitude": "44.207398",
    "latitude": "46.31469",
    "name": "Рыбакова София Семёновна",
    "phone": "79610000045"
  },
  {
    "address": "Россия, Республика Калмыкия, Элиста, улица В.И. Ленина, 303 ",
    "longitude": "44.280565",
    "latitude": "46.310756",
    "name": "Матвеева Владислава Артёмовна",
    "phone": "79610000046"
  },
  {
    "address": "Россия, Республика Калмыкия, Элиста, 9-й микрорайон, 31 ",
    "longitude": "44.312051",
    "latitude": "46.300614",
    "name": "Фролов Денис Эмирович",
    "phone": "79610000047"
  },
  {
    "address": "Россия, Республика Калмыкия, Элиста, Южный район, 2-й проезд, 45 ",
    "longitude": "44.267764",
    "latitude": "46.287232",
    "name": "Розанова Мария Георгиевна",
    "phone": "79610000048"
  },
  {
    "address": "Россия, Республика Калмыкия, Элиста, 2-й микрорайон, 23А ",
    "longitude": "44.303841",
    "latitude": "46.308938",
    "name": "Курочкина Дарья Львовна",
    "phone": "79610000049"
  },
  {
    "address": "Россия, Республика Калмыкия, Элиста, 1-й микрорайон, 39, подъезд 2 ",
    "longitude": "44.256616",
    "latitude": "46.320447",
    "name": "Худяков Иван Алексеевич",
    "phone": "79610000050"
  },
  {
    "address": "Россия, Республика Калмыкия, Элиста, 8-й микрорайон ",
    "longitude": "44.311198",
    "latitude": "46.305091",
    "name": "Быкова Ева Алиевна",
    "phone": "79610000051"
  },
  {
    "address": "Россия, Республика Калмыкия, Элиста, улица Мечникова, 10 ",
    "longitude": "44.281985",
    "latitude": "46.31469",
    "name": "Гордеев Пётр Макарович",
    "phone": "79610000052"
  },
  {
    "address": "Россия, Республика Калмыкия, Элиста, 10-й микрорайон, 19, подъезд 4 ",
    "longitude": "44.266094",
    "latitude": "46.326515",
    "name": "Панков Алексей Ильич",
    "phone": "79610000053"
  },
  {
    "address": "Россия, Республика Калмыкия, Элиста, 10-й микрорайон, 133 ",
    "longitude": "44.279164",
    "latitude": "46.327349",
    "name": "Смирнова Василиса Никитична",
    "phone": "79610000054"
  },
  {
    "address": "Россия, Республика Калмыкия, Элиста, улица Номинханова ",
    "longitude": "44.237383",
    "latitude": "46.302656",
    "name": "Трофимова София Никитична",
    "phone": "79610000055"
  },
  {
    "address": "Россия, Республика Калмыкия, Элиста, улица Махмуда Эсамбаева, 1, подъезд 1 ",
    "longitude": "44.317028",
    "latitude": "46.30143",
    "name": "Тимофеева Майя Святославовна",
    "phone": "79610000056"
  },
  {
    "address": "Россия, Республика Калмыкия, Элиста, 3-й микрорайон, 24, подъезд 2 ",
    "longitude": "44.271124",
    "latitude": "46.316358",
    "name": "Филиппов Кирилл Максимович",
    "phone": "79610000057"
  },
  {
    "address": "Россия, Республика Калмыкия, Элиста, 8-й микрорайон, 54, подъезд 6 ",
    "longitude": "44.314872",
    "latitude": "46.302003",
    "name": "Фролов Никита Андреевич",
    "phone": "79610000058"
  },
  {
    "address": "Россия, Республика Калмыкия, Элиста, 9-й микрорайон ",
    "longitude": "44.308701",
    "latitude": "46.299089",
    "name": "Чернов Михаил Григорьевич",
    "phone": "79610000059"
  },
  {
    "address": "Россия, Республика Калмыкия, Элиста, 9-й микрорайон, 8 ",
    "longitude": "44.304434",
    "latitude": "46.302158",
    "name": "Павлова Яна Евгеньевна",
    "phone": "79610000060"
  },
  {
    "address": "Россия, Республика Калмыкия, Элиста, Ипподромная улица, 13 ",
    "longitude": "44.234841",
    "latitude": "46.321518",
    "name": "Тихонова Ксения Платоновна",
    "phone": "79610000061"
  },
  {
    "address": "Россия, Республика Калмыкия, Элиста, 1-й микрорайон, 19 ",
    "longitude": "44.257578",
    "latitude": "46.315194",
    "name": "Успенский Анатолий Дмитриевич",
    "phone": "79610000062"
  },
  {
    "address": "Россия, Республика Калмыкия, Элиста, Волгоградский переулок, 44А ",
    "longitude": "44.231958",
    "latitude": "46.319377",
    "name": "Захарова Мирослава Константиновна",
    "phone": "79610000063"
  },
  {
    "address": "Россия, Республика Калмыкия, Элиста, 9-й микрорайон, 1к1 ",
    "longitude": "44.304011",
    "latitude": "46.303329",
    "name": "Макарова Полина Владиславовна",
    "phone": "79610000064"
  },
  {
    "address": "Россия, Республика Калмыкия, Элиста, улица Махмуда Эсамбаева, 9, подъезд 2 ",
    "longitude": "44.31816",
    "latitude": "46.303659",
    "name": "Николаева Ева Михайловна",
    "phone": "79610000065"
  },
  {
    "address": "Россия, Республика Калмыкия, Элиста, Южный район, 5-й проезд, 6 ",
    "longitude": "44.264486",
    "latitude": "46.290975",
    "name": "Смирнова Таисия Данииловна",
    "phone": "79610000066"
  },
  {
    "address": "Россия, Республика Калмыкия, Элиста, 9-й микрорайон, 23 ",
    "longitude": "44.311252",
    "latitude": "46.302108",
    "name": "Громов Алексей Матвеевич",
    "phone": "79610000067"
  },
  {
    "address": "Россия, Республика Калмыкия, Элиста, улица Юрия Клыкова, 81Г ",
    "longitude": "44.291237",
    "latitude": "46.310731",
    "name": "Золотарева Анастасия Данильевна",
    "phone": "79610000068"
  },
  {
    "address": "Россия, Республика Калмыкия, Элиста, Ипподромная улица, 96К1 ",
    "longitude": "44.230763",
    "latitude": "46.322171",
    "name": "Соколов Тимофей Максимович",
    "phone": "79610000069"
  },
  {
    "address": "Россия, Республика Калмыкия, Элиста, 4-й микрорайон, 40, подъезд 4 ",
    "longitude": "44.278481",
    "latitude": "46.325681",
    "name": "Федоров Макар Никитич",
    "phone": "79610000070"
  },
  {
    "address": "Россия, Республика Калмыкия, Элиста, Северо-Западный район, 8-я Северо-Западная улица, 18 ",
    "longitude": "44.225705",
    "latitude": "46.329291",
    "name": "Александрова Елизавета Львовна",
    "phone": "79610000071"
  },
  {
    "address": "Россия, Республика Калмыкия, Элиста, улица Сеткл, 11 ",
    "longitude": "44.25058",
    "latitude": "46.29313",
    "name": "Ильинский Михаил Максимович",
    "phone": "79610000072"
  },
  {
    "address": "Россия, Республика Калмыкия, Элиста, улица Герасименко, 5А ",
    "longitude": "44.281149",
    "latitude": "46.312088",
    "name": "Скворцова Алина Кирилловна",
    "phone": "79610000073"
  },
  {
    "address": "Россия, Республика Калмыкия, Элиста, микрорайон Сити-3, 104 ",
    "longitude": "44.322131",
    "latitude": "46.306367",
    "name": "Маркова Елизавета Михайловна",
    "phone": "79610000074"
  },
  {
    "address": "Россия, Республика Калмыкия, Элиста, 9-й микрорайон, 23, подъезд 1 ",
    "longitude": "44.310893",
    "latitude": "46.302009",
    "name": "Макаров Михаил Егорович",
    "phone": "79610000075"
  },
  {
    "address": "Россия, Республика Калмыкия, Элиста, 2-й микрорайон, 36, подъезд 4 ",
    "longitude": "44.295855",
    "latitude": "46.306666",
    "name": "Гусев Фёдор Никитич",
    "phone": "79610000076"
  },
  {
    "address": "Россия, Республика Калмыкия, Элиста, 3-й микрорайон, 17Вк2 ",
    "longitude": "44.269849",
    "latitude": "46.318294",
    "name": "Волкова Виктория Егоровна",
    "phone": "79610000077"
  },
  {
    "address": "Россия, Республика Калмыкия, Элиста, проезд Мечникова, 7 ",
    "longitude": "44.28309",
    "latitude": "46.316134",
    "name": "Васильев Матвей Михайлович",
    "phone": "79610000078"
  },
  {
    "address": "Россия, Республика Калмыкия, Элиста, 9-й микрорайон, 46 ",
    "longitude": "44.307623",
    "latitude": "46.300845",
    "name": "Родионова Амина Мироновна",
    "phone": "79610000079"
  },
  {
    "address": "Россия, Республика Калмыкия, Элиста, 2-я Спортивная улица, 27 ",
    "longitude": "44.239414",
    "latitude": "46.299624",
    "name": "Поздняков Максим Захарович",
    "phone": "79610000080"
  },
  {
    "address": "Россия, Республика Калмыкия, Элиста, улица имени Б. Басанова, 6 ",
    "longitude": "44.246259",
    "latitude": "46.302532",
    "name": "Ковалева Ольга Святославовна",
    "phone": "79610000081"
  },
  {
    "address": "Россия, Республика Калмыкия, Элиста, проспект Чонкушова, 2 ",
    "longitude": "44.265582",
    "latitude": "46.319489",
    "name": "Иванов Даниэль Никитич",
    "phone": "79610000082"
  },
  {
    "address": "Россия, Республика Калмыкия, Элиста, улица Геодезистов, 6 ",
    "longitude": "44.250122",
    "latitude": "46.325046",
    "name": "Федотова Анна Егоровна",
    "phone": "79610000083"
  },
  {
    "address": "Россия, Республика Калмыкия, Элиста, улица М. Пюрвеева, 8 ",
    "longitude": "44.291327",
    "latitude": "46.298435",
    "name": "Осипова Амира Ивановна",
    "phone": "79610000084"
  },
  {
    "address": "Россия, Республика Калмыкия, Элиста, 3-й микрорайон, 22 ",
    "longitude": "44.268321",
    "latitude": "46.316252",
    "name": "Яковлев Семён Львович",
    "phone": "79610000085"
  },
  {
    "address": "Россия, Республика Калмыкия, Элиста, 7-й микрорайон, 2к3, подъезд 1 ",
    "longitude": "44.295136",
    "latitude": "46.302277",
    "name": "Емельянов Данила Леонидович",
    "phone": "79610000086"
  },
  {
    "address": "Россия, Республика Калмыкия, Элиста, улица Юрия Клыкова, 77 ",
    "longitude": "44.286171",
    "latitude": "46.309336",
    "name": "Сахарова Агния Эминовна",
    "phone": "79610000087"
  },
  {
    "address": "Россия, Республика Калмыкия, Элиста, улица Бамб Цецг, 24 ",
    "longitude": "44.234994",
    "latitude": "46.325582",
    "name": "Суворов Дмитрий Иванович",
    "phone": "79610000088"
  },
  {
    "address": "Россия, Республика Калмыкия, Элиста, улица Аккочкарова, 21 ",
    "longitude": "44.29987",
    "latitude": "46.295907",
    "name": "Тихонова Дарья Робертовна",
    "phone": "79610000089"
  },
  {
    "address": "Россия, Республика Калмыкия, Элиста, Волгоградский переулок ",
    "longitude": "44.230143",
    "latitude": "46.318219",
    "name": "Федорова Эмилия Ивановна",
    "phone": "79610000090"
  },
  {
    "address": "Россия, Республика Калмыкия, Элиста, поселок Аршан, Родниковая улица ",
    "longitude": "44.221142",
    "latitude": "46.274539",
    "name": "Горбунов Иван Ильич",
    "phone": "79610000091"
  },
  {
    "address": "Россия, Республика Калмыкия, Элиста, улица А. Сусеева, 9 ",
    "longitude": "44.267603",
    "latitude": "46.305147",
    "name": "Щербаков Кирилл Максимович",
    "phone": "79610000092"
  },
  {
    "address": "Россия, Республика Калмыкия, Элиста, Демьяновская улица, 69 ",
    "longitude": "44.218492",
    "latitude": "46.318343",
    "name": "Беляева Полина Тимофеевна",
    "phone": "79610000093"
  },
  {
    "address": "Россия, Республика Калмыкия, Элиста, улица Юрия Клыкова, 17А, подъезд 1 ",
    "longitude": "44.276002",
    "latitude": "46.307967",
    "name": "Денисова Диана Платоновна",
    "phone": "79610000094"
  },
  {
    "address": "Россия, Республика Калмыкия, Элиста, 4-й микрорайон, 31, подъезд 3 ",
    "longitude": "44.278679",
    "latitude": "46.324013",
    "name": "Рудакова Валерия Александровна",
    "phone": "79610000095"
  },
  {
    "address": "Россия, Республика Калмыкия, Элиста, 6-й микрорайон, 25 ",
    "longitude": "44.289046",
    "latitude": "46.299643",
    "name": "Маркина Амалия Макаровна",
    "phone": "79610000096"
  },
  {
    "address": "Россия, Республика Калмыкия, Элиста, 3-й микрорайон, 23, подъезд 1 ",
    "longitude": "44.26984",
    "latitude": "46.316339",
    "name": "Савельев Кирилл Иванович",
    "phone": "79610000097"
  },
  {
    "address": "Россия, Республика Калмыкия, Элиста, улица Номинханова, 17 ",
    "longitude": "44.240635",
    "latitude": "46.30209",
    "name": "Миронов Сергей Максимович",
    "phone": "79610000098"
  },
  {
    "address": "Россия, Республика Калмыкия, Элиста, улица Юрия Клыкова, 140, подъезд 1 ",
    "longitude": "44.298469",
    "latitude": "46.30961",
    "name": "Лапшин Артемий Макарович",
    "phone": "79610000099"
  },
  {
    "address": "Россия, Республика Калмыкия, Элиста, улица Юрия Клыкова, 17А, подъезд 2 ",
    "longitude": "44.275759",
    "latitude": "46.307929",
    "name": "Демидова Диана Георгиевна",
    "phone": "79610000100"
  },
  {
    "address": "Россия, Республика Калмыкия, Элиста, 2-й квартал жилой группы Гурвн-Сала, 35 ",
    "longitude": "44.247076",
    "latitude": "46.328307",
    "name": "Дмитриев Иван Михайлович",
    "phone": "79610000101"
  },
  {
    "address": "Россия, Республика Калмыкия, Элиста, 1-й микрорайон, 37, подъезд 1 ",
    "longitude": "44.257119",
    "latitude": "46.321487",
    "name": "Новиков Арсений Матвеевич",
    "phone": "79610000102"
  },
  {
    "address": "Россия, Республика Калмыкия, Элиста, 4-й микрорайон, 19 ",
    "longitude": "44.278356",
    "latitude": "46.32046",
    "name": "Ширяева Ольга Алексеевна",
    "phone": "79610000103"
  },
  {
    "address": "Россия, Республика Калмыкия, Элиста, улица Гоголя ",
    "longitude": "44.268429",
    "latitude": "46.295857",
    "name": "Корнеева Агата Давидовна",
    "phone": "79610000104"
  },
  {
    "address": "Россия, Республика Калмыкия, Элиста, 7-й микрорайон, 4к2 ",
    "longitude": "44.300912",
    "latitude": "46.303478",
    "name": "Лапшин Артемий Макарович",
    "phone": "79610000105"
  },
  {
    "address": "Россия, Республика Калмыкия, Элиста, улица Полины Осипенко, 6 ",
    "longitude": "44.281554",
    "latitude": "46.305894",
    "name": "Демидова Диана Георгиевна",
    "phone": "79610000106"
  },
  {
    "address": "Россия, Республика Калмыкия, Элиста, Колонский пруд ",
    "longitude": "44.264872",
    "latitude": "46.3228",
    "name": "Дмитриев Иван Михайлович",
    "phone": "79610000107"
  },
  {
    "address": "Россия, Республика Калмыкия, Элиста, 3-й микрорайон, 14 ",
    "longitude": "44.270936",
    "latitude": "46.318487",
    "name": "Новиков Арсений Матвеевич",
    "phone": "79610000108"
  },
  {
    "address": "Россия, Республика Калмыкия, Элиста, улица Шар-Баргс, 32 ",
    "longitude": "44.211135",
    "latitude": "46.311353",
    "name": "Ширяева Ольга Алексеевна",
    "phone": "79610000109"
  },
  {
    "address": "Россия, Республика Калмыкия, Элиста, 4-й микрорайон ",
    "longitude": "44.27567",
    "latitude": "46.322613",
    "name": "Корнеева Агата Давидовна",
    "phone": "79610000110"
  },
  {
    "address": "Россия, Республика Калмыкия, Элиста, улица Юрия Клыкова, 84 ",
    "longitude": "44.286997",
    "latitude": "46.308496",
    "name": "Попов Максим Тимофеевич",
    "phone": "79610000111"
  },
  {
    "address": "Россия, Республика Калмыкия, Элиста, 8-й микрорайон, 1, подъезд 2 ",
    "longitude": "44.307326",
    "latitude": "46.308334",
    "name": "Виноградова Виктория Артёмовна",
    "phone": "79610000112"
  },
  {
    "address": "Россия, Республика Калмыкия, Элиста, 9-й микрорайон, 1к3 ",
    "longitude": "44.304559",
    "latitude": "46.303796",
    "name": "Коновалова Дарья Артёмовна",
    "phone": "79610000113"
  },
  {
    "address": "Россия, Республика Калмыкия, Элиста, 3-й микрорайон, 10 ",
    "longitude": "44.273334",
    "latitude": "46.318032",
    "name": "Кудрявцева Мария Ярославовна",
    "phone": "79610000114"
  },
  {
    "address": "Россия, Республика Калмыкия, Элиста, территория Северная промышленная зона-2, 22 ",
    "longitude": "44.260919",
    "latitude": "46.340609",
    "name": "Волков Арсений Тимофеевич",
    "phone": "79610000115"
  },
  {
    "address": "Россия, Республика Калмыкия, Элиста, улица Г. Молоканова, 38 ",
    "longitude": "44.273127",
    "latitude": "46.315032",
    "name": "Шульгина Диана Евгеньевна",
    "phone": "79610000116"
  },
  {
    "address": "Россия, Республика Калмыкия, Элиста, 9-й микрорайон, 33 ",
    "longitude": "44.311198",
    "latitude": "46.299188",
    "name": "Борисова София Адамовна",
    "phone": "79610000117"
  },
  {
    "address": "Россия, Республика Калмыкия, Элиста, улица Юрия Клыкова, 81Гк2, подъезд 2 ",
    "longitude": "44.291965",
    "latitude": "46.310588",
    "name": "Андреев Данила Эминович",
    "phone": "79610000118"
  },
  {
    "address": "Россия, Республика Калмыкия, Элиста, улица В.И. Ленина, 128 ",
    "longitude": "44.236746",
    "latitude": "46.311341",
    "name": "Васильева Ясмина Даниловна",
    "phone": "79610000119"
  },
  {
    "address": "Россия, Республика Калмыкия, Элиста, улица В.И. Ленина, 266А ",
    "longitude": "44.290016",
    "latitude": "46.310886",
    "name": "Ефимова Виктория Вадимовна",
    "phone": "79610000120"
  },
  {
    "address": "Россия, Республика Калмыкия, Элиста, 4-й микрорайон, 48 ",
    "longitude": "44.271627",
    "latitude": "46.32364",
    "name": "Колпакова Варвара Максимовна",
    "phone": "79610000121"
  },
  {
    "address": "Россия, Республика Калмыкия, Элиста, Первомайская улица, 13 ",
    "longitude": "44.207865",
    "latitude": "46.317354",
    "name": "Сидоров Алексей Андреевич",
    "phone": "79610000122"
  },
  {
    "address": "Россия, Республика Калмыкия, Элиста, Рельефная улица, 28 ",
    "longitude": "44.253284",
    "latitude": "46.322738",
    "name": "Михайлова София Петровна",
    "phone": "79610000123"
  },
  {
    "address": "Россия, Республика Калмыкия, Элиста, 4-й микрорайон, 46, подъезд 2 ",
    "longitude": "44.273145",
    "latitude": "46.324381",
    "name": "Семенова Дарья Арсентьевна",
    "phone": "79610000124"
  },
  {
    "address": "Россия, Республика Калмыкия, Элиста, 9-й микрорайон, 32, подъезд 1 ",
    "longitude": "44.311432",
    "latitude": "46.300097",
    "name": "Кондрашова Мария Степановна",
    "phone": "79610000125"
  },
  {
    "address": "Россия, Республика Калмыкия, Элиста, 7-й микрорайон, 1к3 ",
    "longitude": "44.297768",
    "latitude": "46.304175",
    "name": "Беляева Анна Марковна",
    "phone": "79610000126"
  },
  {
    "address": "Россия, Республика Калмыкия, Элиста, переулок Лермонтова, 9 ",
    "longitude": "44.279784",
    "latitude": "46.302918",
    "name": "Попова Анастасия Ильинична",
    "phone": "79610000127"
  },
  {
    "address": "Россия, Республика Калмыкия, Элиста, 2-й микрорайон, 30 ",
    "longitude": "44.303535",
    "latitude": "46.306771",
    "name": "Нестеров Артём Константинович",
    "phone": "79610000128"
  },
  {
    "address": "Россия, Республика Калмыкия, Элиста, Волгоградский переулок, 24 ",
    "longitude": "44.230377",
    "latitude": "46.318219",
    "name": "Молчанова Виктория Михайловна",
    "phone": "79610000129"
  },
  {
    "address": "Россия, Республика Калмыкия, Элиста, 8-й микрорайон, 65 ",
    "longitude": "44.309455",
    "latitude": "46.304231",
    "name": "Жукова Татьяна Кирилловна",
    "phone": "79610000130"
  },
  {
    "address": "Россия, Республика Калмыкия, Элиста, въезд Добровольского, 3 ",
    "longitude": "44.222642",
    "latitude": "46.319177",
    "name": "Овчинникова Маргарита Матвеевна",
    "phone": "79610000131"
  },
  {
    "address": "Россия, Республика Калмыкия, Элиста, 1-й микрорайон, 3 ",
    "longitude": "44.254685",
    "latitude": "46.317036",
    "name": "Соловьев Тимофей Тимурович",
    "phone": "79610000132"
  },
  {
    "address": "Россия, Республика Калмыкия, Элиста, 6-й микрорайон ",
    "longitude": "44.292576",
    "latitude": "46.302606",
    "name": "Кузнецов Макар Михайлович",
    "phone": "79610000133"
  },
  {
    "address": "Россия, Республика Калмыкия, Элиста, улица Лизы Чайкиной, 16 ",
    "longitude": "44.291345",
    "latitude": "46.307562",
    "name": "Дроздов Максим Тимофеевич",
    "phone": "79610000134"
  },
  {
    "address": "Россия, Республика Калмыкия, Элиста, Волгоградская улица, 6А ",
    "longitude": "44.229227",
    "latitude": "46.314092",
    "name": "Назаров Даниил Иванович",
    "phone": "79610000135"
  },
  {
    "address": "Россия, Республика Калмыкия, Элиста, 1-й микрорайон, 33 ",
    "longitude": "44.263228",
    "latitude": "46.31675",
    "name": "Колпакова Анна Алексеевна",
    "phone": "79610000136"
  },
  {
    "address": "Россия, Республика Калмыкия, Элиста, улица Строителей, 48А ",
    "longitude": "44.240635",
    "latitude": "46.297825",
    "name": "Алексеева Юлия Тимуровна",
    "phone": "79610000137"
  },
  {
    "address": "Россия, Республика Калмыкия, Элиста, 5-й микрорайон, 2, подъезд 3 ",
    "longitude": "44.283458",
    "latitude": "46.323988",
    "name": "Горохов Александр Артёмович",
    "phone": "79610000138"
  },
  {
    "address": "Россия, Республика Калмыкия, Элиста, 9-й микрорайон, 33, подъезд 5 ",
    "longitude": "44.311153",
    "latitude": "46.299637",
    "name": "Петров Даниэль Павлович",
    "phone": "79610000139"
  },
  {
    "address": "Россия, Республика Калмыкия, Элиста, улица В.И. Ленина, 232, подъезд 3 ",
    "longitude": "44.274807",
    "latitude": "46.309069",
    "name": "Петухов Артур Даниилович",
    "phone": "79610000140"
  },
  {
    "address": "Россия, Республика Калмыкия, Элиста, Ханатинская улица, 15 ",
    "longitude": "44.238165",
    "latitude": "46.329253",
    "name": "Мельников Алексей Владимирович",
    "phone": "79610000141"
  },
  {
    "address": "Россия, Республика Калмыкия, Элиста, улица Юрия Клыкова, 11А, подъезд 3 ",
    "longitude": "44.274268",
    "latitude": "46.308098",
    "name": "Давыдова Марьяна Всеволодовна",
    "phone": "79610000142"
  },
  {
    "address": "Россия, Республика Калмыкия, Элиста, микрорайон Сити-3, 59 ",
    "longitude": "44.318169",
    "latitude": "46.301965",
    "name": "Тимофеева Надежда Глебовна",
    "phone": "79610000143"
  },
  {
    "address": "Россия, Республика Калмыкия, Элиста, улица Хочинова ",
    "longitude": "44.235102",
    "latitude": "46.306697",
    "name": "Беликов Даниил Арсентьевич",
    "phone": "79610000144"
  },
  {
    "address": "Россия, Республика Калмыкия, Элиста, улица Номто Очирова, 8, подъезд 1 ",
    "longitude": "44.267863",
    "latitude": "46.305726",
    "name": "Богданов Адам Макарович",
    "phone": "79610000145"
  },
  {
    "address": "Россия, Республика Калмыкия, Элиста, 7-й микрорайон, 1к3, подъезд 1 ",
    "longitude": "44.297553",
    "latitude": "46.304045",
    "name": "Сергеева Василиса Александровна",
    "phone": "79610000146"
  },
  {
    "address": "Россия, Республика Калмыкия, Элиста, 4-й микрорайон, 19, подъезд 1 ",
    "longitude": "44.278472",
    "latitude": "46.320808",
    "name": "Быкова Надежда Марковна",
    "phone": "79610000147"
  },
  {
    "address": "Россия, Республика Калмыкия, Элиста, Южный район, 1-я улица, 21 ",
    "longitude": "44.266624",
    "latitude": "46.292227",
    "name": "Кононов Николай Иванович",
    "phone": "79610000148"
  },
  {
    "address": "Россия, Республика Калмыкия, Элиста, улица Лувсана Шарапа Тепкина, 6А ",
    "longitude": "44.289207",
    "latitude": "46.298173",
    "name": "Овчинников Даниил Александрович",
    "phone": "79610000149"
  },
  {
    "address": "Россия, Республика Калмыкия, Элиста, улица Хомутникова, 119 ",
    "longitude": "44.233467",
    "latitude": "46.31731",
    "name": "Рыбакова София Семёновна",
    "phone": "79610000150"
  },
  {
    "address": "Россия, Республика Калмыкия, Элиста, 3-й микрорайон, 1, подъезд 2 ",
    "longitude": "44.277565",
    "latitude": "46.317908",
    "name": "Матвеева Владислава Артёмовна",
    "phone": "79610000151"
  },
  {
    "address": "Россия, Республика Калмыкия, Элиста, улица Маяковского, 44 ",
    "longitude": "44.265456",
    "latitude": "46.295278",
    "name": "Фролов Денис Эмирович",
    "phone": "79610000152"
  },
  {
    "address": "Россия, Республика Калмыкия, Элиста, Ипподромная улица, 100к3, подъезд 4 ",
    "longitude": "44.230862",
    "latitude": "46.320653",
    "name": "Розанова Мария Георгиевна",
    "phone": "79610000153"
  },
  {
    "address": "Россия, Республика Калмыкия, Элиста, 4-й микрорайон, 3 ",
    "longitude": "44.274798",
    "latitude": "46.322121",
    "name": "Курочкина Дарья Львовна",
    "phone": "79610000154"
  },
  {
    "address": "Россия, Республика Калмыкия, Элиста, улица Халхин Гол, 24 ",
    "longitude": "44.209455",
    "latitude": "46.317329",
    "name": "Худяков Иван Алексеевич",
    "phone": "79610000155"
  },
  {
    "address": "Россия, Республика Калмыкия, Элиста, улица Г.О. Рокчинского, 17, подъезд 1 ",
    "longitude": "44.270747",
    "latitude": "46.323796",
    "name": "Быкова Ева Алиевна",
    "phone": "79610000156"
  },
  {
    "address": "Россия, Республика Калмыкия, Элиста, Ипподромная улица, 96К1, подъезд 2 ",
    "longitude": "44.230898",
    "latitude": "46.32224",
    "name": "Гордеев Пётр Макарович",
    "phone": "79610000157"
  },
  {
    "address": "Россия, Республика Калмыкия, Элиста, 8-й микрорайон, 6 ",
    "longitude": "44.30526",
    "latitude": "46.304754",
    "name": "Панков Алексей Ильич",
    "phone": "79610000158"
  },
  {
    "address": "Россия, Республика Калмыкия, Элиста, улица Чапаева, 71 ",
    "longitude": "44.277951",
    "latitude": "46.316377",
    "name": "Смирнова Василиса Никитична",
    "phone": "79610000159"
  },
  {
    "address": "Россия, Республика Калмыкия, Элиста, 4-й микрорайон, 34, подъезд 1 ",
    "longitude": "44.279335",
    "latitude": "46.324941",
    "name": "Трофимова София Никитична",
    "phone": "79610000160"
  },
  {
    "address": "Россия, Республика Калмыкия, Элиста, улица А.С. Пушкина, 18 ",
    "longitude": "44.269238",
    "latitude": "46.307338",
    "name": "Тимофеева Майя Святославовна",
    "phone": "79610000161"
  },
  {
    "address": "Россия, Республика Калмыкия, Элиста, 9-й микрорайон, 26 ",
    "longitude": "44.312015",
    "latitude": "46.301274",
    "name": "Филиппов Кирилл Максимович",
    "phone": "79610000162"
  },
  {
    "address": "Россия, Республика Калмыкия, Элиста, Полынная улица, 52 ",
    "longitude": "44.243537",
    "latitude": "46.330156",
    "name": "Фролов Никита Андреевич",
    "phone": "79610000163"
  },
  {
    "address": "Россия, Республика Калмыкия, Элиста, улица Хочинова, 32 ",
    "longitude": "44.239584",
    "latitude": "46.305813",
    "name": "Чернов Михаил Григорьевич",
    "phone": "79610000164"
  },
  {
    "address": "Россия, Республика Калмыкия, Элиста, проезд Чкалова, 12 ",
    "longitude": "44.278598",
    "latitude": "46.306828",
    "name": "Павлова Яна Евгеньевна",
    "phone": "79610000165"
  },
  {
    "address": "Россия, Республика Калмыкия, Элиста, улица Номинханова, 83А ",
    "longitude": "44.231976",
    "latitude": "46.303148",
    "name": "Тихонова Ксения Платоновна",
    "phone": "79610000166"
  },
  {
    "address": "Россия, Республика Калмыкия, Элиста, улица Махмуда Эсамбаева, 3, подъезд 3 ",
    "longitude": "44.317504",
    "latitude": "46.302501",
    "name": "Успенский Анатолий Дмитриевич",
    "phone": "79610000167"
  },
  {
    "address": "Россия, Республика Калмыкия, Элиста, 5-й микрорайон, с21 ",
    "longitude": "44.286701",
    "latitude": "46.31919",
    "name": "Захарова Мирослава Константиновна",
    "phone": "79610000168"
  },
  {
    "address": "Россия, Республика Калмыкия, Элиста, улица К. Илюмжинова ",
    "longitude": "44.28344",
    "latitude": "46.305501",
    "name": "Макарова Полина Владиславовна",
    "phone": "79610000169"
  },
  {
    "address": "Россия, Республика Калмыкия, Элиста, улица Махмуда Эсамбаева, 3 ",
    "longitude": "44.317307",
    "latitude": "46.302407",
    "name": "Николаева Ева Михайловна",
    "phone": "79610000170"
  },
  {
    "address": "Россия, Республика Калмыкия, Элиста, улица 8 Марта, 26Б, подъезд 2 ",
    "longitude": "44.238973",
    "latitude": "46.31896",
    "name": "Смирнова Таисия Данииловна",
    "phone": "79610000171"
  },
  {
    "address": "Россия, Республика Калмыкия, Элиста, 1-й микрорайон, 12А ",
    "longitude": "44.254263",
    "latitude": "46.313781",
    "name": "Громов Алексей Матвеевич",
    "phone": "79610000172"
  },
  {
    "address": "Россия, Республика Калмыкия, Элиста, 1-й микрорайон, 34, подъезд 4 ",
    "longitude": "44.262177",
    "latitude": "46.31713",
    "name": "Золотарева Анастасия Данильевна",
    "phone": "79610000173"
  },
  {
    "address": "Россия, Республика Калмыкия, Элиста, 7-й микрорайон ",
    "longitude": "44.299556",
    "latitude": "46.303217",
    "name": "Соколов Тимофей Максимович",
    "phone": "79610000174"
  },
  {
    "address": "Россия, Республика Калмыкия, Элиста, улица В.И. Ленина, 8А ",
    "longitude": "44.214225",
    "latitude": "46.31238",
    "name": "Федоров Макар Никитич",
    "phone": "79610000175"
  },
  {
    "address": "Россия, Республика Калмыкия, Элиста, 1-й микрорайон, 18 ",
    "longitude": "44.257299",
    "latitude": "46.314684",
    "name": "Александрова Елизавета Львовна",
    "phone": "79610000176"
  },
  {
    "address": "Россия, Республика Калмыкия, Элиста, проспект Чонкушова, 1 ",
    "longitude": "44.266633",
    "latitude": "46.319134",
    "name": "Ильинский Михаил Максимович",
    "phone": "79610000177"
  },
  {
    "address": "Россия, Республика Калмыкия, Элиста, 8-й микрорайон, 49 ",
    "longitude": "44.315402",
    "latitude": "46.303422",
    "name": "Скворцова Алина Кирилловна",
    "phone": "79610000178"
  },
  {
    "address": "Россия, Республика Калмыкия, Элиста, проспект О. Бендера ",
    "longitude": "44.308844",
    "latitude": "46.312275",
    "name": "Маркова Елизавета Михайловна",
    "phone": "79610000179"
  },
  {
    "address": "Россия, Республика Калмыкия, Элиста, улица Сян-Белгина, 17 ",
    "longitude": "44.26957",
    "latitude": "46.313121",
    "name": "Макаров Михаил Егорович",
    "phone": "79610000180"
  },
  {
    "address": "Россия, Республика Калмыкия, Элиста, улица Г.О. Рокчинского, 43 ",
    "longitude": "44.268097",
    "latitude": "46.320746",
    "name": "Гусев Фёдор Никитич",
    "phone": "79610000181"
  },
  {
    "address": "Россия, Республика Калмыкия, Элиста, Северо-Западный район, 9-я Северо-Западная улица, 15 ",
    "longitude": "44.225562",
    "latitude": "46.329658",
    "name": "Волкова Виктория Егоровна",
    "phone": "79610000182"
  },
  {
    "address": "Россия, Республика Калмыкия, Элиста, 1-й микрорайон, 1А ",
    "longitude": "44.257182",
    "latitude": "46.319258",
    "name": "Васильев Матвей Михайлович",
    "phone": "79610000183"
  },
  {
    "address": "Россия, Республика Калмыкия, Элиста, улица 28-й Армии, 9 ",
    "longitude": "44.243312",
    "latitude": "46.307606",
    "name": "Родионова Амина Мироновна",
    "phone": "79610000184"
  },
  {
    "address": "Россия, Республика Калмыкия, Элиста, улица Юрия Клыкова, 140, подъезд 4 ",
    "longitude": "44.297723",
    "latitude": "46.309492",
    "name": "Поздняков Максим Захарович",
    "phone": "79610000185"
  },
  {
    "address": "Россия, Республика Калмыкия, Элиста, улица Балакаева, 5к3 ",
    "longitude": "44.262357",
    "latitude": "46.308041",
    "name": "Ковалева Ольга Святославовна",
    "phone": "79610000186"
  },
  {
    "address": "Россия, Республика Калмыкия, Элиста, 1-й микрорайон, 35, подъезд 1 ",
    "longitude": "44.262051",
    "latitude": "46.316713",
    "name": "Иванов Даниэль Никитич",
    "phone": "79610000187"
  },
  {
    "address": "Россия, Республика Калмыкия, Элиста, улица Скрипкина, 74 ",
    "longitude": "44.256482",
    "latitude": "46.289705",
    "name": "Федотова Анна Егоровна",
    "phone": "79610000188"
  },
  {
    "address": "Россия, Республика Калмыкия, Элиста, улица Чернышевского, 31 ",
    "longitude": "44.260551",
    "latitude": "46.299008",
    "name": "Осипова Амира Ивановна",
    "phone": "79610000189"
  },
  {
    "address": "Россия, Республика Калмыкия, Элиста, улица Махмуда Эсамбаева, 32к4 ",
    "longitude": "44.322166",
    "latitude": "46.315991",
    "name": "Яковлев Семён Львович",
    "phone": "79610000190"
  },
  {
    "address": "Россия, Республика Калмыкия, Элиста, квартал Санср, 1А ",
    "longitude": "44.19165",
    "latitude": "46.303298",
    "name": "Емельянов Данила Леонидович",
    "phone": "79610000191"
  },
  {
    "address": "Россия, Республика Калмыкия, Элиста, Калачинская улица, 22Вк2 ",
    "longitude": "44.286027",
    "latitude": "46.32491",
    "name": "Сахарова Агния Эминовна",
    "phone": "79610000192"
  },
  {
    "address": "Россия, Республика Калмыкия, Элиста, проспект О. Бендера, 11Г ",
    "longitude": "44.308862",
    "latitude": "46.312829",
    "name": "Суворов Дмитрий Иванович",
    "phone": "79610000193"
  },
  {
    "address": "Россия, Республика Калмыкия, Элиста, 2-й микрорайон, 13Б ",
    "longitude": "44.301056",
    "latitude": "46.305632",
    "name": "Тихонова Дарья Робертовна",
    "phone": "79610000194"
  },
  {
    "address": "Россия, Республика Калмыкия, Элиста, 3-й микрорайон, 1, подъезд 1 ",
    "longitude": "44.277349",
    "latitude": "46.317902",
    "name": "Федорова Эмилия Ивановна",
    "phone": "79610000195"
  },
  {
    "address": "Россия, Республика Калмыкия, Элиста, улица Чкалова, 14 ",
    "longitude": "44.277906",
    "latitude": "46.306579",
    "name": "Горбунов Иван Ильич",
    "phone": "79610000196"
  },
  {
    "address": "Россия, Республика Калмыкия, Элиста, поселок Аршан, Молодёжная улица, 7 ",
    "longitude": "44.227259",
    "latitude": "46.271997",
    "name": "Щербаков Кирилл Максимович",
    "phone": "79610000197"
  },
  {
    "address": "Россия, Республика Калмыкия, Элиста, Южный район, 4-й проезд, 20 ",
    "longitude": "44.266417",
    "latitude": "46.287762",
    "name": "Беляева Полина Тимофеевна",
    "phone": "79610000198"
  },
  {
    "address": "Россия, Республика Калмыкия, Элиста, 7-й микрорайон, 1к7, подъезд 1 ",
    "longitude": "44.299152",
    "latitude": "46.303484",
    "name": "Денисова Диана Платоновна",
    "phone": "79610000199"
  },
  {
    "address": "Россия, Республика Калмыкия, Элиста, улица 8 Марта, 26Б ",
    "longitude": "44.238893",
    "latitude": "46.319003",
    "name": "Рудакова Валерия Александровна",
    "phone": "79610000200"
  },
  {
    "address": "Россия, Республика Калмыкия, Элиста, улица В.И. Ленина, 256 ",
    "longitude": "44.281643",
    "latitude": "46.310189",
    "name": "Маркина Амалия Макаровна",
    "phone": "79610000201"
  },
  {
    "address": "Россия, Республика Калмыкия, Элиста, территория Северная промзона-1 ",
    "longitude": "44.252969",
    "latitude": "46.353922",
    "name": "Савельев Кирилл Иванович",
    "phone": "79610000202"
  },
  {
    "address": "Россия, Республика Калмыкия, Элиста, 8-й микрорайон, 64, подъезд 2 ",
    "longitude": "44.309473",
    "latitude": "46.303422",
    "name": "Миронов Сергей Максимович",
    "phone": "79610000203"
  },
  {
    "address": "Россия, Республика Калмыкия, Элиста, Кирпичный переулок, 35 ",
    "longitude": "44.280808",
    "latitude": "46.316756",
    "name": "Лапшин Артемий Макарович",
    "phone": "79610000204"
  },
  {
    "address": "Россия, Республика Калмыкия, Элиста, Республиканская улица, 14 ",
    "longitude": "44.263506",
    "latitude": "46.309691",
    "name": "Демидова Диана Георгиевна",
    "phone": "79610000205"
  },
  {
    "address": "Россия, Республика Калмыкия, Элиста, улица Изотова, 85 ",
    "longitude": "44.244534",
    "latitude": "46.303684",
    "name": "Дмитриев Иван Михайлович",
    "phone": "79610000206"
  },
  {
    "address": "Россия, Республика Калмыкия, Элиста, улица Бимбаева, 7 ",
    "longitude": "44.273963",
    "latitude": "46.303161",
    "name": "Новиков Арсений Матвеевич",
    "phone": "79610000207"
  },
  {
    "address": "Россия, Республика Калмыкия, Элиста, улица 8 Марта, 62 ",
    "longitude": "44.237365",
    "latitude": "46.319694",
    "name": "Ширяева Ольга Алексеевна",
    "phone": "79610000208"
  },
  {
    "address": "Россия, Республика Калмыкия, Элиста, улица В. Манджиева ",
    "longitude": "44.284967",
    "latitude": "46.306672",
    "name": "Корнеева Агата Давидовна",
    "phone": "79610000209"
  },
  {
    "address": "Россия, Республика Калмыкия, Элиста, улица Юрия Клыкова, 7 ",
    "longitude": "44.273559",
    "latitude": "46.307164",
    "name": "Лапшин Артемий Макарович",
    "phone": "79610000210"
  },
  {
    "address": "Россия, Республика Калмыкия, Элиста, 8-й микрорайон, 30, подъезд 2 ",
    "longitude": "44.31604",
    "latitude": "46.306018",
    "name": "Демидова Диана Георгиевна",
    "phone": "79610000211"
  },
  {
    "address": "Россия, Республика Калмыкия, Элиста, 8-й микрорайон, 12А, подъезд 1 ",
    "longitude": "44.308072",
    "latitude": "46.306136",
    "name": "Дмитриев Иван Михайлович",
    "phone": "79610000212"
  },
  {
    "address": "Россия, Республика Калмыкия, Элиста, 8-й микрорайон, 55, подъезд 5 ",
    "longitude": "44.313129",
    "latitude": "46.303185",
    "name": "Новиков Арсений Матвеевич",
    "phone": "79610000213"
  },
  {
    "address": "Россия, Республика Калмыкия, Элиста, Южный район, 15-я улица, 36 ",
    "longitude": "44.235326",
    "latitude": "46.291044",
    "name": "Ширяева Ольга Алексеевна",
    "phone": "79610000214"
  },
  {
    "address": "Россия, Республика Калмыкия, Элиста, улица Юрия Клыкова, 79 ",
    "longitude": "44.288569",
    "latitude": "46.309498",
    "name": "Корнеева Агата Давидовна",
    "phone": "79610000215"
  },
  {
    "address": "Россия, Республика Калмыкия, Элиста, 4-й микрорайон, 20 ",
    "longitude": "44.278517",
    "latitude": "46.321107",
    "name": "Попов Максим Тимофеевич",
    "phone": "79610000216"
  },
  {
    "address": "Россия, Республика Калмыкия, Элиста, улица Джалыкова, 21 ",
    "longitude": "44.220872",
    "latitude": "46.308614",
    "name": "Виноградова Виктория Артёмовна",
    "phone": "79610000217"
  },
  {
    "address": "Россия, Республика Калмыкия, Элиста, улица В.И. Ленина, 5А ",
    "longitude": "44.209437",
    "latitude": "46.313015",
    "name": "Коновалова Дарья Артёмовна",
    "phone": "79610000218"
  },
  {
    "address": "Россия, Республика Калмыкия, Элиста, улица В.И. Ленина, 237А ",
    "longitude": "44.263273",
    "latitude": "46.308359",
    "name": "Кудрявцева Мария Ярославовна",
    "phone": "79610000219"
  },
  {
    "address": "Россия, Республика Калмыкия, Элиста, улица Юрия Клыкова, 6 ",
    "longitude": "44.274196",
    "latitude": "46.306728",
    "name": "Волков Арсений Тимофеевич",
    "phone": "79610000220"
  },
  {
    "address": "Россия, Республика Калмыкия, Элиста, 5-й микрорайон, с16 ",
    "longitude": "44.286297",
    "latitude": "46.320167",
    "name": "Шульгина Диана Евгеньевна",
    "phone": "79610000221"
  },
  {
    "address": "Россия, Республика Калмыкия, Элиста, Тенистый переулок, 5 ",
    "longitude": "44.226262",
    "latitude": "46.304866",
    "name": "Борисова София Адамовна",
    "phone": "79610000222"
  },
  {
    "address": "Россия, Республика Калмыкия, Элиста, 4-й микрорайон, 48, подъезд 3 ",
    "longitude": "44.271735",
    "latitude": "46.32359",
    "name": "Андреев Данила Эминович",
    "phone": "79610000223"
  },
  {
    "address": "Россия, Республика Калмыкия, Элиста, 9-й микрорайон, 21 ",
    "longitude": "44.309913",
    "latitude": "46.302463",
    "name": "Васильева Ясмина Даниловна",
    "phone": "79610000224"
  },
  {
    "address": "Россия, Республика Калмыкия, Элиста, улица Николаева, 45 ",
    "longitude": "44.249124",
    "latitude": "46.30407",
    "name": "Ефимова Виктория Вадимовна",
    "phone": "79610000225"
  },
  {
    "address": "Россия, Республика Калмыкия, Элиста, 9-й микрорайон, 14 ",
    "longitude": "44.303643",
    "latitude": "46.301585",
    "name": "Колпакова Варвара Максимовна",
    "phone": "79610000226"
  },
  {
    "address": "Россия, Республика Калмыкия, Элиста, Южный район, 4-й проезд, 15 ",
    "longitude": "44.266507",
    "latitude": "46.29044",
    "name": "Сидоров Алексей Андреевич",
    "phone": "79610000227"
  },
  {
    "address": "Россия, Республика Калмыкия, Элиста, улица В.И. Ленина, 232 ",
    "longitude": "44.275032",
    "latitude": "46.309181",
    "name": "Михайлова София Петровна",
    "phone": "79610000228"
  },
  {
    "address": "Россия, Республика Калмыкия, Элиста, 8-й микрорайон, 27 ",
    "longitude": "44.313677",
    "latitude": "46.306709",
    "name": "Семенова Дарья Арсентьевна",
    "phone": "79610000229"
  },
  {
    "address": "Россия, Республика Калмыкия, Элиста, 1-й микрорайон, 4А ",
    "longitude": "44.256841",
    "latitude": "46.31779",
    "name": "Кондрашова Мария Степановна",
    "phone": "79610000230"
  },
  {
    "address": "Россия, Республика Калмыкия, Элиста, 8-й микрорайон, 31, подъезд 1 ",
    "longitude": "44.317414",
    "latitude": "46.305676",
    "name": "Беляева Анна Марковна",
    "phone": "79610000231"
  },
  {
    "address": "Россия, Республика Калмыкия, Элиста, улица Хонинова, 4 ",
    "longitude": "44.264665",
    "latitude": "46.3058",
    "name": "Попова Анастасия Ильинична",
    "phone": "79610000232"
  },
  {
    "address": "Россия, Республика Калмыкия, Элиста, Аршанская улица, 4 ",
    "longitude": "44.239216",
    "latitude": "46.288621",
    "name": "Нестеров Артём Константинович",
    "phone": "79610000233"
  },
  {
    "address": "Россия, Республика Калмыкия, Элиста, 7-й микрорайон, 3к4 ",
    "longitude": "44.294669",
    "latitude": "46.300826",
    "name": "Молчанова Виктория Михайловна",
    "phone": "79610000234"
  },
  {
    "address": "Россия, Республика Калмыкия, Элиста, 9-й микрорайон, 6 ",
    "longitude": "44.303401",
    "latitude": "46.302289",
    "name": "Жукова Татьяна Кирилловна",
    "phone": "79610000235"
  },
  {
    "address": "Россия, Республика Калмыкия, Элиста, 10-я улица ",
    "longitude": "44.263228",
    "latitude": "46.286697",
    "name": "Овчинникова Маргарита Матвеевна",
    "phone": "79610000236"
  },
  {
    "address": "Россия, Республика Калмыкия, Элиста, 1-й Строительный въезд, 7 ",
    "longitude": "44.207308",
    "latitude": "46.31929",
    "name": "Соловьев Тимофей Тимурович",
    "phone": "79610000237"
  },
  {
    "address": "Россия, Республика Калмыкия, Элиста, улица Юрия Клыкова, 130 ",
    "longitude": "44.29864",
    "latitude": "46.310382",
    "name": "Кузнецов Макар Михайлович",
    "phone": "79610000238"
  },
  {
    "address": "Россия, Республика Калмыкия, Элиста, Волгоградская улица, 71 ",
    "longitude": "44.234293",
    "latitude": "46.320727",
    "name": "Дроздов Максим Тимофеевич",
    "phone": "79610000239"
  },
  {
    "address": "Россия, Республика Калмыкия, Элиста, 3-й микрорайон, 8А ",
    "longitude": "44.272274",
    "latitude": "46.31881",
    "name": "Назаров Даниил Иванович",
    "phone": "79610000240"
  },
  {
    "address": "Россия, Республика Калмыкия, Элиста, 7-й микрорайон, 1Д ",
    "longitude": "44.299053",
    "latitude": "46.3042",
    "name": "Колпакова Анна Алексеевна",
    "phone": "79610000241"
  },
  {
    "address": "Россия, Республика Калмыкия, Элиста, улица Губаревича, 13 ",
    "longitude": "44.271996",
    "latitude": "46.309872",
    "name": "Алексеева Юлия Тимуровна",
    "phone": "79610000242"
  },
  {
    "address": "Россия, Республика Калмыкия, Элиста, улица К. Илюмжинова, 6 ",
    "longitude": "44.281742",
    "latitude": "46.309666",
    "name": "Горохов Александр Артёмович",
    "phone": "79610000243"
  },
  {
    "address": "Россия, Республика Калмыкия, Элиста, 1-й микрорайон, 12, подъезд 6 ",
    "longitude": "44.25393",
    "latitude": "46.313482",
    "name": "Петров Даниэль Павлович",
    "phone": "79610000244"
  },
  {
    "address": "Россия, Республика Калмыкия, Элиста, улица Алтн Булг, 44 ",
    "longitude": "44.232748",
    "latitude": "46.329888",
    "name": "Петухов Артур Даниилович",
    "phone": "79610000245"
  },
  {
    "address": "Россия, Республика Калмыкия, Элиста, 8-й микрорайон, 30 ",
    "longitude": "44.316462",
    "latitude": "46.305968",
    "name": "Мельников Алексей Владимирович",
    "phone": "79610000246"
  },
  {
    "address": "Россия, Республика Калмыкия, Элиста, Полынная улица, 51А ",
    "longitude": "44.241704",
    "latitude": "46.330877",
    "name": "Давыдова Марьяна Всеволодовна",
    "phone": "79610000247"
  },
  {
    "address": "Россия, Республика Калмыкия, Элиста, 4-й микрорайон, 5, подъезд 2 ",
    "longitude": "44.273487",
    "latitude": "46.322109",
    "name": "Тимофеева Надежда Глебовна",
    "phone": "79610000248"
  },
  {
    "address": "Россия, Республика Калмыкия, Элиста, 3-й микрорайон, 18 ",
    "longitude": "44.268914",
    "latitude": "46.317503",
    "name": "Беликов Даниил Арсентьевич",
    "phone": "79610000249"
  },
  {
    "address": "Россия, Республика Калмыкия, Элиста, 8-й микрорайон, 34, подъезд 2 ",
    "longitude": "44.31639",
    "latitude": "46.304126",
    "name": "Богданов Адам Макарович",
    "phone": "79610000250"
  },
  {
    "address": "Россия, Республика Калмыкия, Элиста, улица Юрия Клыкова, 146, подъезд 3 ",
    "longitude": "44.296466",
    "latitude": "46.309953",
    "name": "Сергеева Василиса Александровна",
    "phone": "79610000251"
  },
  {
    "address": "Россия, Республика Калмыкия, Элиста, 3-й микрорайон ",
    "longitude": "44.2731",
    "latitude": "46.318269",
    "name": "Быкова Надежда Марковна",
    "phone": "79610000252"
  },
  {
    "address": "Россия, Республика Калмыкия, Элиста, улица Тогтун, 72 ",
    "longitude": "44.242863",
    "latitude": "46.327822",
    "name": "Кононов Николай Иванович",
    "phone": "79610000253"
  },
  {
    "address": "Россия, Республика Калмыкия, Элиста, 10-й микрорайон, 19 ",
    "longitude": "44.266363",
    "latitude": "46.326472",
    "name": "Овчинников Даниил Александрович",
    "phone": "79610000254"
  },
  {
    "address": "Россия, Республика Калмыкия, Элиста, 9-й микрорайон, 23, подъезд 8 ",
    "longitude": "44.311333",
    "latitude": "46.301554",
    "name": "Рыбакова София Семёновна",
    "phone": "79610000255"
  },
  {
    "address": "Россия, Республика Калмыкия, Элиста, 9-й микрорайон, 52, подъезд 4 ",
    "longitude": "44.309653",
    "latitude": "46.298896",
    "name": "Матвеева Владислава Артёмовна",
    "phone": "79610000256"
  },
  {
    "address": "Россия, Республика Калмыкия, Элиста, 8-й микрорайон, 36 ",
    "longitude": "44.313704",
    "latitude": "46.305607",
    "name": "Фролов Денис Эмирович",
    "phone": "79610000257"
  },
  {
    "address": "Россия, Республика Калмыкия, Элиста, улица В.И. Ленина, 349 ",
    "longitude": "44.300733",
    "latitude": "46.314086",
    "name": "Розанова Мария Георгиевна",
    "phone": "79610000258"
  },
  {
    "address": "Россия, Республика Калмыкия, Элиста, улица К. Илюмжинова, 6, подъезд 1 ",
    "longitude": "44.281599",
    "latitude": "46.309598",
    "name": "Курочкина Дарья Львовна",
    "phone": "79610000259"
  },
  {
    "address": "Россия, Республика Калмыкия, Элиста, улица Амур-Санана, 11 ",
    "longitude": "44.240617",
    "latitude": "46.303497",
    "name": "Худяков Иван Алексеевич",
    "phone": "79610000260"
  },
  {
    "address": "Россия, Республика Калмыкия, Элиста, 10-й микрорайон, 15к2, подъезд 1 ",
    "longitude": "44.265752",
    "latitude": "46.325239",
    "name": "Быкова Ева Алиевна",
    "phone": "79610000261"
  },
  {
    "address": "Россия, Республика Калмыкия, Элиста, 5-й микрорайон ",
    "longitude": "44.283916",
    "latitude": "46.32163",
    "name": "Гордеев Пётр Макарович",
    "phone": "79610000262"
  },
  {
    "address": "Россия, Республика Калмыкия, Элиста, 4-й микрорайон, 7 ",
    "longitude": "44.272508",
    "latitude": "46.321692",
    "name": "Панков Алексей Ильич",
    "phone": "79610000263"
  },
  {
    "address": "Россия, Республика Калмыкия, Элиста, 2-й микрорайон, 40, подъезд 1 ",
    "longitude": "44.29581",
    "latitude": "46.308029",
    "name": "Смирнова Василиса Никитична",
    "phone": "79610000264"
  },
  {
    "address": "Россия, Республика Калмыкия, Элиста, улица Юрия Клыкова, 22 ",
    "longitude": "44.278194",
    "latitude": "46.307251",
    "name": "Трофимова София Никитична",
    "phone": "79610000265"
  },
  {
    "address": "Россия, Республика Калмыкия, Элиста, 8-й микрорайон, 2 ",
    "longitude": "44.306715",
    "latitude": "46.307662",
    "name": "Тимофеева Майя Святославовна",
    "phone": "79610000266"
  },
  {
    "address": "Россия, Республика Калмыкия, Элиста, 1-й микрорайон, 23, подъезд 6 ",
    "longitude": "44.258799",
    "latitude": "46.315094",
    "name": "Филиппов Кирилл Максимович",
    "phone": "79610000267"
  },
  {
    "address": "Россия, Республика Калмыкия, Элиста, 1-й Спортивный проезд, 15 ",
    "longitude": "44.232973",
    "latitude": "46.300919",
    "name": "Фролов Никита Андреевич",
    "phone": "79610000268"
  },
  {
    "address": "Россия, Республика Калмыкия, Элиста, улица 28-й Армии, 54 ",
    "longitude": "44.246025",
    "latitude": "46.311403",
    "name": "Чернов Михаил Григорьевич",
    "phone": "79610000269"
  },
  {
    "address": "Россия, Республика Калмыкия, Элиста, Ипподромная улица, 100к1 ",
    "longitude": "44.230215",
    "latitude": "46.321362",
    "name": "Павлова Яна Евгеньевна",
    "phone": "79610000270"
  },
  {
    "address": "Россия, Республика Калмыкия, Элиста, 1-й микрорайон, 46, подъезд 2 ",
    "longitude": "44.256221",
    "latitude": "46.312972",
    "name": "Тихонова Ксения Платоновна",
    "phone": "79610000271"
  },
  {
    "address": "Россия, Республика Калмыкия, Элиста, 9-й микрорайон, 33, подъезд 2 ",
    "longitude": "44.311297",
    "latitude": "46.299238",
    "name": "Успенский Анатолий Дмитриевич",
    "phone": "79610000272"
  },
  {
    "address": "Россия, Республика Калмыкия, Элиста, 7-й микрорайон, 4к3, подъезд 4 ",
    "longitude": "44.302224",
    "latitude": "46.303086",
    "name": "Захарова Мирослава Константиновна",
    "phone": "79610000273"
  },
  {
    "address": "Россия, Республика Калмыкия, Элиста, 4-й микрорайон, 51 ",
    "longitude": "44.272885",
    "latitude": "46.322962",
    "name": "Макарова Полина Владиславовна",
    "phone": "79610000274"
  },
  {
    "address": "Россия, Республика Калмыкия, Элиста, 1-й микрорайон, 12, подъезд 3 ",
    "longitude": "44.254487",
    "latitude": "46.313358",
    "name": "Николаева Ева Михайловна",
    "phone": "79610000275"
  },
  {
    "address": "Россия, Республика Калмыкия, Элиста, улица Полины Осипенко, 56 ",
    "longitude": "44.279164",
    "latitude": "46.312486",
    "name": "Смирнова Таисия Данииловна",
    "phone": "79610000276"
  },
  {
    "address": "Россия, Республика Калмыкия, Элиста, улица Максима Горького, 15 ",
    "longitude": "44.265474",
    "latitude": "46.308932",
    "name": "Громов Алексей Матвеевич",
    "phone": "79610000277"
  },
  {
    "address": "Россия, Республика Калмыкия, Элиста, улица Сухэ-Батора ",
    "longitude": "44.293914",
    "latitude": "46.302177",
    "name": "Золотарева Анастасия Данильевна",
    "phone": "79610000278"
  },
  {
    "address": "Россия, Республика Калмыкия, Элиста, 9-й микрорайон, 53, подъезд 6 ",
    "longitude": "44.311225",
    "latitude": "46.298647",
    "name": "Соколов Тимофей Максимович",
    "phone": "79610000279"
  },
  {
    "address": "Россия, Республика Калмыкия, Элиста, 3-й микрорайон, 21 ",
    "longitude": "44.268366",
    "latitude": "46.316694",
    "name": "Федоров Макар Никитич",
    "phone": "79610000280"
  },
  {
    "address": "Россия, Республика Калмыкия, Элиста, въезд Будённого, 3 ",
    "longitude": "44.264189",
    "latitude": "46.317148",
    "name": "Александрова Елизавета Львовна",
    "phone": "79610000281"
  },
  {
    "address": "Россия, Республика Калмыкия, Элиста, улица 8 Марта, 36, подъезд 2 ",
    "longitude": "44.235686",
    "latitude": "46.319719",
    "name": "Ильинский Михаил Максимович",
    "phone": "79610000282"
  },
  {
    "address": "Россия, Республика Калмыкия, Элиста, улица Маяковского, 116А ",
    "longitude": "44.251819",
    "latitude": "46.297906",
    "name": "Скворцова Алина Кирилловна",
    "phone": "79610000283"
  },
  {
    "address": "Россия, Республика Калмыкия, Элиста, Южный район, 1-й проезд, 20А ",
    "longitude": "44.272292",
    "latitude": "46.289001",
    "name": "Маркова Елизавета Михайловна",
    "phone": "79610000284"
  },
  {
    "address": "Россия, Республика Калмыкия, Элиста, улица Балакаева, 5к2 ",
    "longitude": "44.262419",
    "latitude": "46.308259",
    "name": "Макаров Михаил Егорович",
    "phone": "79610000285"
  },
  {
    "address": "Россия, Республика Калмыкия, Элиста, 5-й микрорайон, 6 ",
    "longitude": "44.285659",
    "latitude": "46.31886",
    "name": "Гусев Фёдор Никитич",
    "phone": "79610000286"
  },
  {
    "address": "Россия, Республика Калмыкия, Элиста, 2-й микрорайон, 13, подъезд 4 ",
    "longitude": "44.299906",
    "latitude": "46.305931",
    "name": "Волкова Виктория Егоровна",
    "phone": "79610000287"
  },
  {
    "address": "Россия, Республика Калмыкия, Элиста, улица А.С. Пушкина, 19 ",
    "longitude": "44.269876",
    "latitude": "46.310258",
    "name": "Васильев Матвей Михайлович",
    "phone": "79610000288"
  },
  {
    "address": "Россия, Республика Калмыкия, Элиста, улица Хомутникова, 17 ",
    "longitude": "44.250903",
    "latitude": "46.31215",
    "name": "Родионова Амина Мироновна",
    "phone": "79610000289"
  },
  {
    "address": "Россия, Республика Калмыкия, Элиста, 10-й микрорайон ",
    "longitude": "44.268097",
    "latitude": "46.327965",
    "name": "Поздняков Максим Захарович",
    "phone": "79610000290"
  },
  {
    "address": "Россия, Республика Калмыкия, Элиста, 4-й микрорайон, 29, подъезд 2 ",
    "longitude": "44.279649",
    "latitude": "46.32313",
    "name": "Ковалева Ольга Святославовна",
    "phone": "79610000291"
  },
  {
    "address": "Россия, Республика Калмыкия, Элиста, улица В.И. Ленина, 229 ",
    "longitude": "44.259347",
    "latitude": "46.307712",
    "name": "Иванов Даниэль Никитич",
    "phone": "79610000292"
  },
  {
    "address": "Россия, Республика Калмыкия, Элиста, 2-я Спортивная улица, 26 ",
    "longitude": "44.234958",
    "latitude": "46.299008",
    "name": "Федотова Анна Егоровна",
    "phone": "79610000293"
  },
  {
    "address": "Россия, Республика Калмыкия, Элиста, улица Юрия Клыкова, 41 ",
    "longitude": "44.27947",
    "latitude": "46.307985",
    "name": "Осипова Амира Ивановна",
    "phone": "79610000294"
  },
  {
    "address": "Россия, Республика Калмыкия, Элиста, улица Юрия Клыкова, 79А ",
    "longitude": "44.291525",
    "latitude": "46.309984",
    "name": "Яковлев Семён Львович",
    "phone": "79610000295"
  },
  {
    "address": "Россия, Республика Калмыкия, Элиста, улица В.И. Ленина, 247 ",
    "longitude": "44.267666",
    "latitude": "46.308676",
    "name": "Емельянов Данила Леонидович",
    "phone": "79610000296"
  },
  {
    "address": "Россия, Республика Калмыкия, Элиста, 6-й микрорайон, 27 ",
    "longitude": "44.287303",
    "latitude": "46.301324",
    "name": "Сахарова Агния Эминовна",
    "phone": "79610000297"
  },
  {
    "address": "Россия, Республика Калмыкия, Элиста, улица имени В.У. Лиджиева, 32А ",
    "longitude": "44.220711",
    "latitude": "46.321443",
    "name": "Суворов Дмитрий Иванович",
    "phone": "79610000298"
  },
  {
    "address": "Россия, Республика Калмыкия, Элиста, улица Эрдни Деликова, 20 ",
    "longitude": "44.274134",
    "latitude": "46.311671",
    "name": "Тихонова Дарья Робертовна",
    "phone": "79610000299"
  },
  {
    "address": "Россия, Республика Калмыкия, Элиста, 2-й микрорайон, 23 ",
    "longitude": "44.303374",
    "latitude": "46.308558",
    "name": "Федорова Эмилия Ивановна",
    "phone": "79610000300"
  },
  {
    "address": "Россия, Республика Калмыкия, Элиста, улица Юрия Клыкова, 79А, подъезд 1 ",
    "longitude": "44.291749",
    "latitude": "46.310034",
    "name": "Горбунов Иван Ильич",
    "phone": "79610000301"
  },
  {
    "address": "Россия, Республика Калмыкия, Элиста, улица В.И. Ленина, 241 ",
    "longitude": "44.264674",
    "latitude": "46.308228",
    "name": "Щербаков Кирилл Максимович",
    "phone": "79610000302"
  },
  {
    "address": "Россия, Республика Калмыкия, Элиста, Профсоюзная улица, 26 ",
    "longitude": "44.221393",
    "latitude": "46.304094",
    "name": "Беляева Полина Тимофеевна",
    "phone": "79610000303"
  },
  {
    "address": "Россия, Республика Калмыкия, Элиста, 4-й микрорайон, 23, подъезд 1 ",
    "longitude": "44.278149",
    "latitude": "46.322202",
    "name": "Денисова Диана Платоновна",
    "phone": "79610000304"
  },
  {
    "address": "Россия, Республика Калмыкия, Элиста, улица Герасименко, 57А, подъезд 1 ",
    "longitude": "44.280754",
    "latitude": "46.317889",
    "name": "Рудакова Валерия Александровна",
    "phone": "79610000305"
  },
  {
    "address": "Россия, Республика Калмыкия, Элиста, 10-й микрорайон, 16, подъезд 2 ",
    "longitude": "44.265887",
    "latitude": "46.326204",
    "name": "Маркина Амалия Макаровна",
    "phone": "79610000306"
  },
  {
    "address": "Россия, Республика Калмыкия, Элиста, улица Губаревича, 16 ",
    "longitude": "44.270909",
    "latitude": "46.310432",
    "name": "Савельев Кирилл Иванович",
    "phone": "79610000307"
  },
  {
    "address": "Россия, Республика Калмыкия, Элиста, улица Губаревича, 4 ",
    "longitude": "44.272067",
    "latitude": "46.307176",
    "name": "Миронов Сергей Максимович",
    "phone": "79610000308"
  },
  {
    "address": "Россия, Республика Калмыкия, Элиста, квартал Сити-Чесс, 8/2 ",
    "longitude": "44.297975",
    "latitude": "46.296598",
    "name": "Лапшин Артемий Макарович",
    "phone": "79610000309"
  },
  {
    "address": "Россия, Республика Калмыкия, Элиста, 6-й микрорайон, 27, подъезд 5 ",
    "longitude": "44.287186",
    "latitude": "46.301486",
    "name": "Демидова Диана Георгиевна",
    "phone": "79610000310"
  },
  {
    "address": "Россия, Республика Калмыкия, Элиста, 4-й микрорайон, 39к1 ",
    "longitude": "44.280413",
    "latitude": "46.325227",
    "name": "Дмитриев Иван Михайлович",
    "phone": "79610000311"
  },
  {
    "address": "Россия, Республика Калмыкия, Элиста, улица Островского, 6 ",
    "longitude": "44.263372",
    "latitude": "46.296455",
    "name": "Новиков Арсений Матвеевич",
    "phone": "79610000312"
  },
  {
    "address": "Россия, Республика Калмыкия, Элиста, 7-й микрорайон, 4к1, подъезд 1 ",
    "longitude": "44.300813",
    "latitude": "46.302812",
    "name": "Ширяева Ольга Алексеевна",
    "phone": "79610000313"
  },
  {
    "address": "Россия, Республика Калмыкия, Элиста, 1-й микрорайон, 40, подъезд 4 ",
    "longitude": "44.256266",
    "latitude": "46.319775",
    "name": "Корнеева Агата Давидовна",
    "phone": "79610000314"
  },
  {
    "address": "Россия, Республика Калмыкия, Элиста, улица Полины Осипенко, 13 ",
    "longitude": "44.281733",
    "latitude": "46.307294",
    "name": "Лапшин Артемий Макарович",
    "phone": "79610000315"
  },
  {
    "address": "Россия, Республика Калмыкия, Элиста, квартал Сити-Чесс, 9/1 ",
    "longitude": "44.297876",
    "latitude": "46.29605",
    "name": "Демидова Диана Георгиевна",
    "phone": "79610000316"
  },
  {
    "address": "Россия, Республика Калмыкия, Элиста, 4-й микрорайон, 17, подъезд 4 ",
    "longitude": "44.276289",
    "latitude": "46.319657",
    "name": "Дмитриев Иван Михайлович",
    "phone": "79610000317"
  },
  {
    "address": "Россия, Республика Калмыкия, Элиста, улица Мира ",
    "longitude": "44.293843",
    "latitude": "46.308888",
    "name": "Новиков Арсений Матвеевич",
    "phone": "79610000318"
  },
  {
    "address": "Россия, Республика Калмыкия, Элиста, улица Б.К. Пашкова, 110 ",
    "longitude": "44.226972",
    "latitude": "46.307768",
    "name": "Ширяева Ольга Алексеевна",
    "phone": "79610000319"
  },
  {
    "address": "Россия, Республика Калмыкия, Элиста, 4-й микрорайон, 14 ",
    "longitude": "44.275265",
    "latitude": "46.319999",
    "name": "Корнеева Агата Давидовна",
    "phone": "79610000320"
  },
  {
    "address": "Россия, Республика Калмыкия, Элиста, улица В.И. Ленина, 232, подъезд 1 ",
    "longitude": "44.274699",
    "latitude": "46.308739",
    "name": "Попов Максим Тимофеевич",
    "phone": "79610000321"
  },
  {
    "address": "Россия, Республика Калмыкия, Элиста, 8-й микрорайон, 5 ",
    "longitude": "44.305584",
    "latitude": "46.305315",
    "name": "Виноградова Виктория Артёмовна",
    "phone": "79610000322"
  },
  {
    "address": "Россия, Республика Калмыкия, Элиста, 1-й микрорайон, 6Г ",
    "longitude": "44.257299",
    "latitude": "46.317877",
    "name": "Коновалова Дарья Артёмовна",
    "phone": "79610000323"
  },
  {
    "address": "Россия, Республика Калмыкия, Элиста, Кирпичный переулок ",
    "longitude": "44.281095",
    "latitude": "46.315144",
    "name": "Кудрявцева Мария Ярославовна",
    "phone": "79610000324"
  },
  {
    "address": "Россия, Республика Калмыкия, Элиста, 1-й микрорайон, 4Б ",
    "longitude": "44.255889",
    "latitude": "46.317802",
    "name": "Волков Арсений Тимофеевич",
    "phone": "79610000325"
  },
  {
    "address": "Россия, Республика Калмыкия, Элиста, улица Кирова, 187 ",
    "longitude": "44.2815",
    "latitude": "46.297501",
    "name": "Шульгина Диана Евгеньевна",
    "phone": "79610000326"
  },
  {
    "address": "Россия, Республика Калмыкия, Элиста, улица Чернышевского, 57 ",
    "longitude": "44.257703",
    "latitude": "46.299749",
    "name": "Борисова София Адамовна",
    "phone": "79610000327"
  },
  {
    "address": "Россия, Республика Калмыкия, Элиста, улица Г.О. Рокчинского ",
    "longitude": "44.275158",
    "latitude": "46.325395",
    "name": "Андреев Данила Эминович",
    "phone": "79610000328"
  },
  {
    "address": "Россия, Республика Калмыкия, Элиста, въезд Хахлыновой, 1 ",
    "longitude": "44.279622",
    "latitude": "46.299039",
    "name": "Васильева Ясмина Даниловна",
    "phone": "79610000329"
  },
  {
    "address": "Россия, Республика Калмыкия, Элиста, улица Герасименко, 5Б ",
    "longitude": "44.280943",
    "latitude": "46.312804",
    "name": "Ефимова Виктория Вадимовна",
    "phone": "79610000330"
  },
  {
    "address": "Россия, Республика Калмыкия, Элиста, улица 28-й Армии, 7 ",
    "longitude": "44.243205",
    "latitude": "46.307494",
    "name": "Колпакова Варвара Максимовна",
    "phone": "79610000331"
  },
  {
    "address": "Россия, Республика Калмыкия, Элиста, 4-й микрорайон, 45, подъезд 4 ",
    "longitude": "44.274089",
    "latitude": "46.324598",
    "name": "Сидоров Алексей Андреевич",
    "phone": "79610000332"
  },
  {
    "address": "Россия, Республика Калмыкия, Элиста, улица Юрия Клыкова, 81Г, подъезд 2 ",
    "longitude": "44.291426",
    "latitude": "46.3106",
    "name": "Михайлова София Петровна",
    "phone": "79610000333"
  },
  {
    "address": "Россия, Республика Калмыкия, Элиста, квартал Сити-Чесс, 4/3 ",
    "longitude": "44.298684",
    "latitude": "46.296847",
    "name": "Семенова Дарья Арсентьевна",
    "phone": "79610000334"
  },
  {
    "address": "Россия, Республика Калмыкия, Элиста, улица А.С. Пушкина, 52 ",
    "longitude": "44.266309",
    "latitude": "46.31637",
    "name": "Кондрашова Мария Степановна",
    "phone": "79610000335"
  },
  {
    "address": "Россия, Республика Калмыкия, Элиста, 3-й микрорайон, 4 ",
    "longitude": "44.276739",
    "latitude": "46.318393",
    "name": "Беляева Анна Марковна",
    "phone": "79610000336"
  },
  {
    "address": "Россия, Республика Калмыкия, Элиста, улица Юрия Гагарина, 8 ",
    "longitude": "44.275229",
    "latitude": "46.306292",
    "name": "Попова Анастасия Ильинична",
    "phone": "79610000337"
  },
  {
    "address": "Россия, Республика Калмыкия, Элиста, 4-й микрорайон, 39к2 ",
    "longitude": "44.279838",
    "latitude": "46.32537",
    "name": "Нестеров Артём Константинович",
    "phone": "79610000338"
  },
  {
    "address": "Россия, Республика Калмыкия, Элиста, 4-й микрорайон, 11 ",
    "longitude": "44.272508",
    "latitude": "46.319389",
    "name": "Молчанова Виктория Михайловна",
    "phone": "79610000339"
  },
  {
    "address": "Россия, Республика Калмыкия, Элиста, 9-й микрорайон, 25, подъезд 6 ",
    "longitude": "44.312842",
    "latitude": "46.30148",
    "name": "Жукова Татьяна Кирилловна",
    "phone": "79610000340"
  },
  {
    "address": "Россия, Республика Калмыкия, Элиста, 6-й микрорайон, 19 ",
    "longitude": "44.289037",
    "latitude": "46.302656",
    "name": "Овчинникова Маргарита Матвеевна",
    "phone": "79610000341"
  },
  {
    "address": "Россия, Республика Калмыкия, Элиста, 4-й микрорайон, 43, подъезд 6 ",
    "longitude": "44.275391",
    "latitude": "46.325196",
    "name": "Соловьев Тимофей Тимурович",
    "phone": "79610000342"
  },
  {
    "address": "Россия, Республика Калмыкия, Элиста, улица Юрия Клыкова, 10, подъезд 1 ",
    "longitude": "44.274574",
    "latitude": "46.306747",
    "name": "Кузнецов Макар Михайлович",
    "phone": "79610000343"
  },
  {
    "address": "Россия, Республика Калмыкия, Элиста, улица В.И. Ленина ",
    "longitude": "44.26162",
    "latitude": "46.307319",
    "name": "Дроздов Максим Тимофеевич",
    "phone": "79610000344"
  },
  {
    "address": "Россия, Республика Калмыкия, Элиста, 1-й микрорайон, 15, подъезд 4 ",
    "longitude": "44.254604",
    "latitude": "46.314036",
    "name": "Назаров Даниил Иванович",
    "phone": "79610000345"
  },
  {
    "address": "Россия, Республика Калмыкия, Элиста, улица Шар-Баргс, 9 ",
    "longitude": "44.20861",
    "latitude": "46.310706",
    "name": "Колпакова Анна Алексеевна",
    "phone": "79610000346"
  },
  {
    "address": "Россия, Республика Калмыкия, Элиста, 4-й микрорайон, 43 ",
    "longitude": "44.275706",
    "latitude": "46.325053",
    "name": "Алексеева Юлия Тимуровна",
    "phone": "79610000347"
  },
  {
    "address": "Россия, Республика Калмыкия, Элиста, улица Г.О. Рокчинского, 19, подъезд 5 ",
    "longitude": "44.267729",
    "latitude": "46.322501",
    "name": "Горохов Александр Артёмович",
    "phone": "79610000348"
  },
  {
    "address": "Россия, Республика Калмыкия, Элиста, Южный район, 11-я улица, 2К ",
    "longitude": "44.267037",
    "latitude": "46.284847",
    "name": "Петров Даниэль Павлович",
    "phone": "79610000349"
  },
  {
    "address": "Россия, Республика Калмыкия, Элиста, улица Максима Горького, 90 ",
    "longitude": "44.276828",
    "latitude": "46.311272",
    "name": "Петухов Артур Даниилович",
    "phone": "79610000350"
  },
  {
    "address": "Россия, Республика Калмыкия, Элиста, 9-й микрорайон, 3 ",
    "longitude": "44.304865",
    "latitude": "46.303727",
    "name": "Мельников Алексей Владимирович",
    "phone": "79610000351"
  },
  {
    "address": "Россия, Республика Калмыкия, Элиста, улица Г.О. Рокчинского, 45, подъезд 4 ",
    "longitude": "44.268789",
    "latitude": "46.323055",
    "name": "Давыдова Марьяна Всеволодовна",
    "phone": "79610000352"
  },
  {
    "address": "Россия, Республика Калмыкия, Элиста, улица Лермонтова, 17 ",
    "longitude": "44.276011",
    "latitude": "46.304082",
    "name": "Тимофеева Надежда Глебовна",
    "phone": "79610000353"
  },
  {
    "address": "Россия, Республика Калмыкия, Элиста, 7-й микрорайон, 3к4, подъезд 4 ",
    "longitude": "44.294552",
    "latitude": "46.300845",
    "name": "Беликов Даниил Арсентьевич",
    "phone": "79610000354"
  },
  {
    "address": "Россия, Республика Калмыкия, Элиста, улица Улан-Туг, 17 ",
    "longitude": "44.288767",
    "latitude": "46.304848",
    "name": "Богданов Адам Макарович",
    "phone": "79610000355"
  },
  {
    "address": "Россия, Республика Калмыкия, Элиста, улица В.И. Ленина, 102 ",
    "longitude": "44.233754",
    "latitude": "46.311596",
    "name": "Сергеева Василиса Александровна",
    "phone": "79610000356"
  },
  {
    "address": "Россия, Республика Калмыкия, Элиста, квартал Сити-Чесс, 5/1 ",
    "longitude": "44.297148",
    "latitude": "46.298055",
    "name": "Быкова Надежда Марковна",
    "phone": "79610000357"
  },
  {
    "address": "Россия, Республика Калмыкия, Элиста, улица Эрдни Деликова, 23 ",
    "longitude": "44.273577",
    "latitude": "46.312331",
    "name": "Кононов Николай Иванович",
    "phone": "79610000358"
  },
  {
    "address": "Россия, Республика Калмыкия, Элиста, 10-й микрорайон, 120к1, подъезд 4 ",
    "longitude": "44.276325",
    "latitude": "46.326136",
    "name": "Овчинников Даниил Александрович",
    "phone": "79610000359"
  },
  {
    "address": "Россия, Республика Калмыкия, Элиста, 8-й микрорайон, 12, подъезд 2 ",
    "longitude": "44.307245",
    "latitude": "46.306354",
    "name": "Рыбакова София Семёновна",
    "phone": "79610000360"
  },
  {
    "address": "Россия, Республика Калмыкия, Элиста, 3-й Спортивный проезд, 2 ",
    "longitude": "44.232479",
    "latitude": "46.305757",
    "name": "Матвеева Владислава Артёмовна",
    "phone": "79610000361"
  },
  {
    "address": "Россия, Республика Калмыкия, Элиста, 8-й микрорайон, 64, подъезд 1 ",
    "longitude": "44.309788",
    "latitude": "46.303335",
    "name": "Фролов Денис Эмирович",
    "phone": "79610000362"
  },
  {
    "address": "Россия, Республика Калмыкия, Элиста, поселок Лола ",
    "longitude": "44.255601",
    "latitude": "46.150893",
    "name": "Розанова Мария Георгиевна",
    "phone": "79610000363"
  },
  {
    "address": "Россия, Республика Калмыкия, Элиста, Ипподромная улица, 100к2 ",
    "longitude": "44.230978",
    "latitude": "46.321524",
    "name": "Курочкина Дарья Львовна",
    "phone": "79610000364"
  },
  {
    "address": "Россия, Республика Калмыкия, Элиста, улица имени Б. Адучиева, 27 ",
    "longitude": "44.271879",
    "latitude": "46.315306",
    "name": "Худяков Иван Алексеевич",
    "phone": "79610000365"
  },
  {
    "address": "Россия, Республика Калмыкия, Элиста, Квартальная улица, 25 ",
    "longitude": "44.277817",
    "latitude": "46.312629",
    "name": "Быкова Ева Алиевна",
    "phone": "79610000366"
  },
  {
    "address": "Россия, Республика Калмыкия, Элиста, 10-й микрорайон, 54, подъезд 4 ",
    "longitude": "44.266875",
    "latitude": "46.32776",
    "name": "Гордеев Пётр Макарович",
    "phone": "79610000367"
  },
  {
    "address": "Россия, Республика Калмыкия, Элиста, Спортивная улица, 6 ",
    "longitude": "44.235281",
    "latitude": "46.300328",
    "name": "Панков Алексей Ильич",
    "phone": "79610000368"
  },
  {
    "address": "Россия, Республика Калмыкия, Элиста, 6-й микрорайон, 7 ",
    "longitude": "44.293861",
    "latitude": "46.303459",
    "name": "Смирнова Василиса Никитична",
    "phone": "79610000369"
  },
  {
    "address": "Россия, Республика Калмыкия, Элиста, улица Аккочкарова, 27 ",
    "longitude": "44.300194",
    "latitude": "46.296368",
    "name": "Трофимова София Никитична",
    "phone": "79610000370"
  },
  {
    "address": "Россия, Республика Калмыкия, Элиста, улица Манцын Кец, 51 ",
    "longitude": "44.247481",
    "latitude": "46.291965",
    "name": "Тимофеева Майя Святославовна",
    "phone": "79610000371"
  },
  {
    "address": "Россия, Республика Калмыкия, Элиста, 6-й микрорайон, 14, подъезд 1 ",
    "longitude": "44.291642",
    "latitude": "46.302999",
    "name": "Филиппов Кирилл Максимович",
    "phone": "79610000372"
  },
  {
    "address": "Россия, Республика Калмыкия, Элиста, 2-й микрорайон, 11 ",
    "longitude": "44.30385",
    "latitude": "46.305396",
    "name": "Фролов Никита Андреевич",
    "phone": "79610000373"
  },
  {
    "address": "Россия, Республика Калмыкия, Элиста, 6-й микрорайон, 1 ",
    "longitude": "44.29678",
    "latitude": "46.304842",
    "name": "Чернов Михаил Григорьевич",
    "phone": "79610000374"
  },
  {
    "address": "Россия, Республика Калмыкия, Элиста, улица Юрия Клыкова, 77В ",
    "longitude": "44.285722",
    "latitude": "46.310077",
    "name": "Павлова Яна Евгеньевна",
    "phone": "79610000375"
  },
  {
    "address": "Россия, Республика Калмыкия, Элиста, 2-й микрорайон, 25 ",
    "longitude": "44.30544",
    "latitude": "46.308347",
    "name": "Тихонова Ксения Платоновна",
    "phone": "79610000376"
  },
  {
    "address": "Россия, Республика Калмыкия, Элиста, Квартальная улица, 27 ",
    "longitude": "44.27832",
    "latitude": "46.312617",
    "name": "Успенский Анатолий Дмитриевич",
    "phone": "79610000377"
  },
  {
    "address": "Россия, Республика Калмыкия, Элиста, Гранатовая улица, 9 ",
    "longitude": "44.233018",
    "latitude": "46.32916",
    "name": "Захарова Мирослава Константиновна",
    "phone": "79610000378"
  },
  {
    "address": "Россия, Республика Калмыкия, Элиста, 1-й Спортивный проезд, 5 ",
    "longitude": "44.233197",
    "latitude": "46.30189",
    "name": "Макарова Полина Владиславовна",
    "phone": "79610000379"
  },
  {
    "address": "Россия, Республика Калмыкия, Элиста, Северо-Западный район, 3-я Северо-Западная улица, 24 ",
    "longitude": "44.226604",
    "latitude": "46.325358",
    "name": "Николаева Ева Михайловна",
    "phone": "79610000380"
  },
  {
    "address": "Россия, Республика Калмыкия, Элиста, 7-й микрорайон, 4к3 ",
    "longitude": "44.301918",
    "latitude": "46.303217",
    "name": "Смирнова Таисия Данииловна",
    "phone": "79610000381"
  },
  {
    "address": "Россия, Республика Калмыкия, Элиста, проспект О. Бендера, 45 ",
    "longitude": "44.310399",
    "latitude": "46.319202",
    "name": "Громов Алексей Матвеевич",
    "phone": "79610000382"
  },
  {
    "address": "Россия, Республика Калмыкия, Элиста, улица Хочинова, 43 ",
    "longitude": "44.237689",
    "latitude": "46.305956",
    "name": "Золотарева Анастасия Данильевна",
    "phone": "79610000383"
  },
  {
    "address": "Россия, Республика Калмыкия, Элиста, 6-й микрорайон, 13, подъезд 4 ",
    "longitude": "44.291426",
    "latitude": "46.302625",
    "name": "Соколов Тимофей Максимович",
    "phone": "79610000384"
  },
  {
    "address": "Россия, Республика Калмыкия, Элиста, улица Максима Горького, 18 ",
    "longitude": "44.263426",
    "latitude": "46.309361",
    "name": "Федоров Макар Никитич",
    "phone": "79610000385"
  },
  {
    "address": "Россия, Республика Калмыкия, Элиста, Ханты-Мансийская улица, 12 ",
    "longitude": "44.275212",
    "latitude": "46.328619",
    "name": "Александрова Елизавета Львовна",
    "phone": "79610000386"
  },
  {
    "address": "Россия, Республика Калмыкия, Элиста, 2-й микрорайон, 15 ",
    "longitude": "44.303041",
    "latitude": "46.309473",
    "name": "Ильинский Михаил Максимович",
    "phone": "79610000387"
  },
  {
    "address": "Россия, Республика Калмыкия, Элиста, квартал Сити-Чесс, 6/2 ",
    "longitude": "44.297993",
    "latitude": "46.2978",
    "name": "Скворцова Алина Кирилловна",
    "phone": "79610000388"
  },
  {
    "address": "Россия, Республика Калмыкия, Элиста, улица Адуч, 10 ",
    "longitude": "44.269759",
    "latitude": "46.307743",
    "name": "Маркова Елизавета Михайловна",
    "phone": "79610000389"
  },
  {
    "address": "Россия, Республика Калмыкия, Элиста, Ипподромная улица, 91, подъезд 1 ",
    "longitude": "44.231401",
    "latitude": "46.324094",
    "name": "Макаров Михаил Егорович",
    "phone": "79610000390"
  },
  {
    "address": "Россия, Республика Калмыкия, Элиста, 8-й микрорайон, 58 ",
    "longitude": "44.310497",
    "latitude": "46.303105",
    "name": "Гусев Фёдор Никитич",
    "phone": "79610000391"
  },
  {
    "address": "Россия, Республика Калмыкия, Элиста, 8-й микрорайон, 8Б ",
    "longitude": "44.311045",
    "latitude": "46.307164",
    "name": "Волкова Виктория Егоровна",
    "phone": "79610000392"
  },
  {
    "address": "Россия, Республика Калмыкия, Элиста, переулок Лермонтова, 1Д ",
    "longitude": "44.27788",
    "latitude": "46.303049",
    "name": "Васильев Матвей Михайлович",
    "phone": "79610000393"
  },
  {
    "address": "Россия, Республика Калмыкия, Элиста, квартал Сити-Чесс, 24 ",
    "longitude": "44.300625",
    "latitude": "46.29742",
    "name": "Родионова Амина Мироновна",
    "phone": "79610000394"
  },
  {
    "address": "Россия, Республика Калмыкия, Элиста, улица Кирова, 101 ",
    "longitude": "44.26763",
    "latitude": "46.298136",
    "name": "Поздняков Максим Захарович",
    "phone": "79610000395"
  },
  {
    "address": "Россия, Республика Калмыкия, Элиста, улица А.С. Пушкина, 3Ак1 ",
    "longitude": "44.271807",
    "latitude": "46.304287",
    "name": "Ковалева Ольга Святославовна",
    "phone": "79610000396"
  },
  {
    "address": "Россия, Республика Калмыкия, Элиста, улица В.И. Ленина, 256, подъезд 2 ",
    "longitude": "44.281751",
    "latitude": "46.310146",
    "name": "Иванов Даниэль Никитич",
    "phone": "79610000397"
  },
  {
    "address": "Россия, Республика Калмыкия, Элиста, улица Н. Шапшуковой, 23 ",
    "longitude": "44.270549",
    "latitude": "46.292619",
    "name": "Федотова Анна Егоровна",
    "phone": "79610000398"
  },
  {
    "address": "Россия, Республика Калмыкия, Элиста, улица 8 Марта, 26 ",
    "longitude": "44.240546",
    "latitude": "46.318356",
    "name": "Осипова Амира Ивановна",
    "phone": "79610000399"
  },
  {
    "address": "Россия, Республика Калмыкия, Элиста, 6-й микрорайон, 8, подъезд 2 ",
    "longitude": "44.294507",
    "latitude": "46.303322",
    "name": "Яковлев Семён Львович",
    "phone": "79610000400"
  },
  {
    "address": "Россия, Республика Калмыкия, Элиста, улица Кирова, 9А ",
    "longitude": "44.25747",
    "latitude": "46.303378",
    "name": "Емельянов Данила Леонидович",
    "phone": "79610000401"
  },
  {
    "address": "Россия, Республика Калмыкия, Элиста, проспект О.И. Городовикова, 3 ",
    "longitude": "44.280646",
    "latitude": "46.322227",
    "name": "Сахарова Агния Эминовна",
    "phone": "79610000402"
  },
  {
    "address": "Россия, Республика Калмыкия, Элиста, улица В.И. Ленина, 170 ",
    "longitude": "44.241102",
    "latitude": "46.310768",
    "name": "Суворов Дмитрий Иванович",
    "phone": "79610000403"
  },
  {
    "address": "Россия, Республика Калмыкия, Элиста, 2-й микрорайон, 30, подъезд 6 ",
    "longitude": "44.303796",
    "latitude": "46.306964",
    "name": "Тихонова Дарья Робертовна",
    "phone": "79610000404"
  },
  {
    "address": "Россия, Республика Калмыкия, Элиста, Привокзальная площадь ",
    "longitude": "44.281994",
    "latitude": "46.326615",
    "name": "Федорова Эмилия Ивановна",
    "phone": "79610000405"
  },
  {
    "address": "Россия, Республика Калмыкия, Элиста, 2-й микрорайон, 13, подъезд 2 ",
    "longitude": "44.300418",
    "latitude": "46.305794",
    "name": "Горбунов Иван Ильич",
    "phone": "79610000406"
  },
  {
    "address": "Россия, Республика Калмыкия, Элиста, улица Анатолия Серова, 16 ",
    "longitude": "44.28",
    "latitude": "46.306448",
    "name": "Щербаков Кирилл Максимович",
    "phone": "79610000407"
  },
  {
    "address": "Россия, Республика Калмыкия, Элиста, Северо-Западный район, улица Павла Вдовикина, 13 ",
    "longitude": "44.234635",
    "latitude": "46.331929",
    "name": "Беляева Полина Тимофеевна",
    "phone": "79610000408"
  },
  {
    "address": "Россия, Республика Калмыкия, Элиста, 1-й микрорайон, 14 ",
    "longitude": "44.254272",
    "latitude": "46.314329",
    "name": "Денисова Диана Платоновна",
    "phone": "79610000409"
  },
  {
    "address": "Россия, Республика Калмыкия, Элиста, Вербная улица, 30 ",
    "longitude": "44.238147",
    "latitude": "46.329546",
    "name": "Рудакова Валерия Александровна",
    "phone": "79610000410"
  },
  {
    "address": "Россия, Республика Калмыкия, Элиста, 5-й микрорайон, 2 ",
    "longitude": "44.283404",
    "latitude": "46.324051",
    "name": "Маркина Амалия Макаровна",
    "phone": "79610000411"
  },
  {
    "address": "Россия, Республика Калмыкия, Элиста, улица В.И. Ленина, 285, подъезд 1 ",
    "longitude": "44.277053",
    "latitude": "46.310214",
    "name": "Савельев Кирилл Иванович",
    "phone": "79610000412"
  },
  {
    "address": "Россия, Республика Калмыкия, Элиста, 3-й микрорайон, 6, подъезд 2 ",
    "longitude": "44.275355",
    "latitude": "46.318904",
    "name": "Миронов Сергей Максимович",
    "phone": "79610000413"
  },
  {
    "address": "Россия, Республика Калмыкия, Элиста, улица Г.О. Рокчинского, 45, подъезд 3 ",
    "longitude": "44.268977",
    "latitude": "46.323055",
    "name": "Лапшин Артемий Макарович",
    "phone": "79610000414"
  },
  {
    "address": "Россия, Республика Калмыкия, Элиста, Строительная улица, 19 ",
    "longitude": "44.207263",
    "latitude": "46.317503",
    "name": "Демидова Диана Георгиевна",
    "phone": "79610000415"
  },
  {
    "address": "Россия, Республика Калмыкия, Элиста, улица Братьев Алехиных, 42 ",
    "longitude": "44.268061",
    "latitude": "46.311409",
    "name": "Дмитриев Иван Михайлович",
    "phone": "79610000416"
  },
  {
    "address": "Россия, Республика Калмыкия, Элиста, 1-й въезд Горького ",
    "longitude": "44.259509",
    "latitude": "46.30966",
    "name": "Новиков Арсений Матвеевич",
    "phone": "79610000417"
  },
  {
    "address": "Россия, Республика Калмыкия, Элиста, Спортивная улица ",
    "longitude": "44.242207",
    "latitude": "46.299985",
    "name": "Ширяева Ольга Алексеевна",
    "phone": "79610000418"
  },
  {
    "address": "Россия, Республика Калмыкия, Элиста, Республиканская улица, 24 ",
    "longitude": "44.262366",
    "latitude": "46.309548",
    "name": "Корнеева Агата Давидовна",
    "phone": "79610000419"
  },
  {
    "address": "Россия, Республика Калмыкия, Элиста, Республиканская улица, 47 ",
    "longitude": "44.261692",
    "latitude": "46.309772",
    "name": "Лапшин Артемий Макарович",
    "phone": "79610000420"
  },
  {
    "address": "Россия, Республика Калмыкия, Элиста, улица Лермонтова, 32 ",
    "longitude": "44.277296",
    "latitude": "46.302333",
    "name": "Демидова Диана Георгиевна",
    "phone": "79610000421"
  },
  {
    "address": "Россия, Республика Калмыкия, Элиста, улица Б. Хеечиева, 27 ",
    "longitude": "44.272247",
    "latitude": "46.313843",
    "name": "Дмитриев Иван Михайлович",
    "phone": "79610000422"
  },
  {
    "address": "Россия, Республика Калмыкия, Элиста, улица Манцын Кец, 73 ",
    "longitude": "44.244857",
    "latitude": "46.292551",
    "name": "Новиков Арсений Матвеевич",
    "phone": "79610000423"
  },
  {
    "address": "Россия, Республика Калмыкия, Элиста, поселок Аршан, квартал Геологов, 37 ",
    "longitude": "44.239899",
    "latitude": "46.277498",
    "name": "Ширяева Ольга Алексеевна",
    "phone": "79610000424"
  },
  {
    "address": "Россия, Республика Калмыкия, Элиста, 4-й микрорайон, 5 ",
    "longitude": "44.27337",
    "latitude": "46.32204",
    "name": "Корнеева Агата Давидовна",
    "phone": "79610000425"
  },
  {
    "address": "Россия, Республика Калмыкия, Элиста, 1-й микрорайон, 41, подъезд 1 ",
    "longitude": "44.257973",
    "latitude": "46.321592",
    "name": "Попов Максим Тимофеевич",
    "phone": "79610000426"
  },
  {
    "address": "Россия, Республика Калмыкия, Элиста, 1-й микрорайон, 53, подъезд 1 ",
    "longitude": "44.25791",
    "latitude": "46.320609",
    "name": "Виноградова Виктория Артёмовна",
    "phone": "79610000427"
  },
  {
    "address": "Россия, Республика Калмыкия, Элиста, улица Автомобилистов, 36 ",
    "longitude": "44.237042",
    "latitude": "46.301112",
    "name": "Коновалова Дарья Артёмовна",
    "phone": "79610000428"
  },
  {
    "address": "Россия, Республика Калмыкия, Элиста, 1-й микрорайон, 37, подъезд 2 ",
    "longitude": "44.2572",
    "latitude": "46.321648",
    "name": "Кудрявцева Мария Ярославовна",
    "phone": "79610000429"
  },
  {
    "address": "Россия, Республика Калмыкия, Элиста, улица Добровольского, 27 ",
    "longitude": "44.215222",
    "latitude": "46.319881",
    "name": "Волков Арсений Тимофеевич",
    "phone": "79610000430"
  },
  {
    "address": "Россия, Республика Калмыкия, Элиста, 9-й микрорайон, 14, подъезд 2 ",
    "longitude": "44.303661",
    "latitude": "46.301666",
    "name": "Шульгина Диана Евгеньевна",
    "phone": "79610000431"
  },
  {
    "address": "Россия, Республика Калмыкия, Элиста, 9-й микрорайон, 14, подъезд 3 ",
    "longitude": "44.303329",
    "latitude": "46.30176",
    "name": "Борисова София Адамовна",
    "phone": "79610000432"
  },
  {
    "address": "Россия, Республика Калмыкия, Элиста, Калачинская улица, 22Вк1, подъезд 3 ",
    "longitude": "44.2853",
    "latitude": "46.325158",
    "name": "Андреев Данила Эминович",
    "phone": "79610000433"
  },
  {
    "address": "Россия, Республика Калмыкия, Элиста, 7-й микрорайон, 2к4, подъезд 1 ",
    "longitude": "44.295585",
    "latitude": "46.301853",
    "name": "Васильева Ясмина Даниловна",
    "phone": "79610000434"
  },
  {
    "address": "Россия, Республика Калмыкия, Элиста, улица Геодезистов, 24 ",
    "longitude": "44.252502",
    "latitude": "46.324542",
    "name": "Ефимова Виктория Вадимовна",
    "phone": "79610000435"
  },
  {
    "address": "Россия, Республика Калмыкия, Элиста, улица Скрипкина, 7Б ",
    "longitude": "44.269139",
    "latitude": "46.288023",
    "name": "Колпакова Варвара Максимовна",
    "phone": "79610000436"
  },
  {
    "address": "Россия, Республика Калмыкия, Элиста, улица А.С. Пушкина, 38 ",
    "longitude": "44.268735",
    "latitude": "46.31144",
    "name": "Сидоров Алексей Андреевич",
    "phone": "79610000437"
  },
  {
    "address": "Россия, Республика Калмыкия, Элиста, 1-й квартал жилой группы Гурвн-Сала, 30 ",
    "longitude": "44.247076",
    "latitude": "46.328307",
    "name": "Михайлова София Петровна",
    "phone": "79610000438"
  },
  {
    "address": "Россия, Республика Калмыкия, Элиста, 6-й микрорайон, 6, подъезд 1 ",
    "longitude": "44.294777",
    "latitude": "46.303808",
    "name": "Семенова Дарья Арсентьевна",
    "phone": "79610000439"
  },
  {
    "address": "Россия, Республика Калмыкия, Элиста, 10-й микрорайон, 15к5 ",
    "longitude": "44.266983",
    "latitude": "46.324885",
    "name": "Кондрашова Мария Степановна",
    "phone": "79610000440"
  },
  {
    "address": "Россия, Республика Калмыкия, Элиста, улица А.С. Пушкина, 54 ",
    "longitude": "44.267064",
    "latitude": "46.316949",
    "name": "Беляева Анна Марковна",
    "phone": "79610000441"
  },
  {
    "address": "Россия, Республика Калмыкия, Элиста, улица Эрдни Деликова ",
    "longitude": "44.274071",
    "latitude": "46.311191",
    "name": "Попова Анастасия Ильинична",
    "phone": "79610000442"
  },
  {
    "address": "Россия, Республика Калмыкия, Элиста, 6-й микрорайон, 6 ",
    "longitude": "44.294355",
    "latitude": "46.304026",
    "name": "Нестеров Артём Константинович",
    "phone": "79610000443"
  },
  {
    "address": "Россия, Республика Калмыкия, Элиста, 4-й микрорайон, 27, подъезд 4 ",
    "longitude": "44.277619",
    "latitude": "46.322613",
    "name": "Молчанова Виктория Михайловна",
    "phone": "79610000444"
  },
  {
    "address": "Россия, Республика Калмыкия, Элиста, улица Номто Очирова, 4 ",
    "longitude": "44.267755",
    "latitude": "46.306554",
    "name": "Жукова Татьяна Кирилловна",
    "phone": "79610000445"
  },
  {
    "address": "Россия, Республика Калмыкия, Элиста, Партизанский тупик, 24 ",
    "longitude": "44.248325",
    "latitude": "46.312125",
    "name": "Овчинникова Маргарита Матвеевна",
    "phone": "79610000446"
  },
  {
    "address": "Россия, Республика Калмыкия, Элиста, Южный район, 5-я улица, 30 ",
    "longitude": "44.264944",
    "latitude": "46.289474",
    "name": "Соловьев Тимофей Тимурович",
    "phone": "79610000447"
  },
  {
    "address": "Россия, Республика Калмыкия, Элиста, Шахматная улица, 39 ",
    "longitude": "44.255314",
    "latitude": "46.323472",
    "name": "Кузнецов Макар Михайлович",
    "phone": "79610000448"
  },
  {
    "address": "Россия, Республика Калмыкия, Элиста, улица Полины Осипенко, 57 ",
    "longitude": "44.279928",
    "latitude": "46.312505",
    "name": "Дроздов Максим Тимофеевич",
    "phone": "79610000449"
  },
  {
    "address": "Россия, Республика Калмыкия, Элиста, улица Маяковского, 56 ",
    "longitude": "44.262976",
    "latitude": "46.295608",
    "name": "Назаров Даниил Иванович",
    "phone": "79610000450"
  },
  {
    "address": "Россия, Республика Калмыкия, Элиста, улица имени Б. Адучиева, 43 ",
    "longitude": "44.274098",
    "latitude": "46.315518",
    "name": "Колпакова Анна Алексеевна",
    "phone": "79610000451"
  },
  {
    "address": "Россия, Республика Калмыкия, Элиста, Спортивная улица, 34 ",
    "longitude": "44.239809",
    "latitude": "46.299973",
    "name": "Алексеева Юлия Тимуровна",
    "phone": "79610000452"
  },
  {
    "address": "Россия, Республика Калмыкия, Элиста, улица Джиргал, 58 ",
    "longitude": "44.246888",
    "latitude": "46.292526",
    "name": "Горохов Александр Артёмович",
    "phone": "79610000453"
  },
  {
    "address": "Россия, Республика Калмыкия, Элиста, улица С.М. Будённого, 7 ",
    "longitude": "44.260731",
    "latitude": "46.319009",
    "name": "Петров Даниэль Павлович",
    "phone": "79610000454"
  },
  {
    "address": "Россия, Республика Калмыкия, Элиста, Демьяновская улица, 10 ",
    "longitude": "44.227152",
    "latitude": "46.31581",
    "name": "Петухов Артур Даниилович",
    "phone": "79610000455"
  },
  {
    "address": "Россия, Республика Калмыкия, Элиста, улица Полины Осипенко, 70А ",
    "longitude": "44.278993",
    "latitude": "46.313943",
    "name": "Мельников Алексей Владимирович",
    "phone": "79610000456"
  },
  {
    "address": "Россия, Республика Калмыкия, Элиста, 8-й микрорайон, 61 ",
    "longitude": "44.312492",
    "latitude": "46.304263",
    "name": "Давыдова Марьяна Всеволодовна",
    "phone": "79610000457"
  },
  {
    "address": "Россия, Республика Калмыкия, Элиста, 7-й микрорайон, 4к1 ",
    "longitude": "44.300499",
    "latitude": "46.302824",
    "name": "Тимофеева Надежда Глебовна",
    "phone": "79610000458"
  },
  {
    "address": "Россия, Республика Калмыкия, Элиста, 4-й микрорайон, 46 ",
    "longitude": "44.273235",
    "latitude": "46.324306",
    "name": "Беликов Даниил Арсентьевич",
    "phone": "79610000459"
  },
  {
    "address": "Россия, Республика Калмыкия, Элиста, улица Разина ",
    "longitude": "44.274753",
    "latitude": "46.293466",
    "name": "Богданов Адам Макарович",
    "phone": "79610000460"
  },
  {
    "address": "Россия, Республика Калмыкия, Элиста, 7-й микрорайон, 2к1 ",
    "longitude": "44.296762",
    "latitude": "46.302781",
    "name": "Сергеева Василиса Александровна",
    "phone": "79610000461"
  },